"","city","stateProvince","n","medianSalary","cityMeanClick","cityMeanLocalClick","localRatio","lng","lat","SalaryInfo","ClickInfo","LocalClickInfo"
"1","Santa Clara Valley","CA",74,103950,14.048540784067,0.837205482377315,0.0595937681532604,NA,NA,"Annual estimated Salary in  Santa Clara Valley : $ 103950","Daily estimated Click per job in  Santa Clara Valley :  14.048540784067 clicks","Daily estimated Local Click ratio per job in  Santa Clara Valley : $ 0.0595937681532604"
"2","Annapolis Junction","MD",137,93900,13.9590425982942,0.92250773817425,0.0660867485487136,NA,NA,"Annual estimated Salary in  Annapolis Junction : $ 93900","Daily estimated Click per job in  Annapolis Junction :  13.9590425982942 clicks","Daily estimated Local Click ratio per job in  Annapolis Junction : $ 0.0660867485487136"
"3","Tinker AFB","OK",60,88200,19.9669105659599,1.45088262480868,0.0726643523551503,NA,NA,"Annual estimated Salary in  Tinker AFB : $ 88200","Daily estimated Click per job in  Tinker AFB :  19.9669105659599 clicks","Daily estimated Local Click ratio per job in  Tinker AFB : $ 0.0726643523551503"
"4","Basking Ridge","NJ",92,86400,23.5980697110939,1.35195506038178,0.0572909173052492,-74.5493,40.7062,"Annual estimated Salary in  Basking Ridge : $ 86400","Daily estimated Click per job in  Basking Ridge :  23.5980697110939 clicks","Daily estimated Local Click ratio per job in  Basking Ridge : $ 0.0572909173052492"
"5","Mountain View","CA",418,84850,16.9692740562569,1.3924049157267,0.082054477469724,-122.0796,37.4001,"Annual estimated Salary in  Mountain View : $ 84850","Daily estimated Click per job in  Mountain View :  16.9692740562569 clicks","Daily estimated Local Click ratio per job in  Mountain View : $ 0.082054477469724"
"6","Shalimar","FL",83,81900,17.9383111599473,1.64247083899812,0.0915621779750057,-86.583,30.4433,"Annual estimated Salary in  Shalimar : $ 81900","Daily estimated Click per job in  Shalimar :  17.9383111599473 clicks","Daily estimated Local Click ratio per job in  Shalimar : $ 0.0915621779750057"
"7","Fort Eustis","VA",97,80900,20.7039313112519,1.4064114355677,0.06792968033097,NA,NA,"Annual estimated Salary in  Fort Eustis : $ 80900","Daily estimated Click per job in  Fort Eustis :  20.7039313112519 clicks","Daily estimated Local Click ratio per job in  Fort Eustis : $ 0.06792968033097"
"8","Remote","UNKNOWN",208,80500,84.3783297799437,1.31020024927732,0.0155276864651657,NA,NA,"Annual estimated Salary in  Remote : $ 80500","Daily estimated Click per job in  Remote :  84.3783297799437 clicks","Daily estimated Local Click ratio per job in  Remote : $ 0.0155276864651657"
"9","Reston","VA",473,80300,17.3067638599718,1.50590764109135,0.0870126647174236,-77.346,38.9497,"Annual estimated Salary in  Reston : $ 80300","Daily estimated Click per job in  Reston :  17.3067638599718 clicks","Daily estimated Local Click ratio per job in  Reston : $ 0.0870126647174236"
"10","Sunnyvale","CA",515,80000,15.5296028544627,1.69530741121649,0.109166179399708,-122.0261,37.3846,"Annual estimated Salary in  Sunnyvale : $ 80000","Daily estimated Click per job in  Sunnyvale :  15.5296028544627 clicks","Daily estimated Local Click ratio per job in  Sunnyvale : $ 0.109166179399708"
"11","McLean","VA",462,78950,16.9035887051499,1.31097700209533,0.077556134674285,-77.1943,38.9436,"Annual estimated Salary in  McLean : $ 78950","Daily estimated Click per job in  McLean :  16.9035887051499 clicks","Daily estimated Local Click ratio per job in  McLean : $ 0.077556134674285"
"12","Township of Warren","NJ",61,78600,22.6781748084555,1.06462256442779,0.0469448080994087,NA,NA,"Annual estimated Salary in  Township of Warren : $ 78600","Daily estimated Click per job in  Township of Warren :  22.6781748084555 clicks","Daily estimated Local Click ratio per job in  Township of Warren : $ 0.0469448080994087"
"13","Herndon","VA",390,78400,19.0803681787405,1.96698879171092,0.103089666472084,-77.3867,38.9699,"Annual estimated Salary in  Herndon : $ 78400","Daily estimated Click per job in  Herndon :  19.0803681787405 clicks","Daily estimated Local Click ratio per job in  Herndon : $ 0.103089666472084"
"14","Jersey City","NJ",513,78400,22.5544062592097,4.19267679795553,0.18589169449954,-74.0683,40.7161,"Annual estimated Salary in  Jersey City : $ 78400","Daily estimated Click per job in  Jersey City :  22.5544062592097 clicks","Daily estimated Local Click ratio per job in  Jersey City : $ 0.18589169449954"
"15","San Francisco Bay Area","CA",216,76950,22.0801139235367,1.0945123427886,0.0495700496192589,NA,NA,"Annual estimated Salary in  San Francisco Bay Area : $ 76950","Daily estimated Click per job in  San Francisco Bay Area :  22.0801139235367 clicks","Daily estimated Local Click ratio per job in  San Francisco Bay Area : $ 0.0495700496192589"
"16","Foster City","CA",131,76900,16.4268001156067,1.13369913652386,0.0690152146824238,-122.2659,37.5553,"Annual estimated Salary in  Foster City : $ 76900","Daily estimated Click per job in  Foster City :  16.4268001156067 clicks","Daily estimated Local Click ratio per job in  Foster City : $ 0.0690152146824238"
"17","Research Triangle Park","NC",73,76800,34.0327144887404,1.30963572685649,0.0384816711370401,NA,NA,"Annual estimated Salary in  Research Triangle Park : $ 76800","Daily estimated Click per job in  Research Triangle Park :  34.0327144887404 clicks","Daily estimated Local Click ratio per job in  Research Triangle Park : $ 0.0384816711370401"
"18","Fort Meade","MD",167,76300,14.9381759565847,0.922260146844297,0.0617384712514225,NA,NA,"Annual estimated Salary in  Fort Meade : $ 76300","Daily estimated Click per job in  Fort Meade :  14.9381759565847 clicks","Daily estimated Local Click ratio per job in  Fort Meade : $ 0.0617384712514225"
"19","Redmond","WA",417,74700,17.948061138914,1.85501260255057,0.103354484263965,-122.1176,47.6776,"Annual estimated Salary in  Redmond : $ 74700","Daily estimated Click per job in  Redmond :  17.948061138914 clicks","Daily estimated Local Click ratio per job in  Redmond : $ 0.103354484263965"
"20","Fort Belvoir","VA",125,74000,20.653508349082,1.23348637850766,0.0597228498741952,NA,NA,"Annual estimated Salary in  Fort Belvoir : $ 74000","Daily estimated Click per job in  Fort Belvoir :  20.653508349082 clicks","Daily estimated Local Click ratio per job in  Fort Belvoir : $ 0.0597228498741952"
"21","Parsippany","NJ",212,73650,21.1416203969885,1.54118938865235,0.0728983568767457,-74.426,40.8579,"Annual estimated Salary in  Parsippany : $ 73650","Daily estimated Click per job in  Parsippany :  21.1416203969885 clicks","Daily estimated Local Click ratio per job in  Parsippany : $ 0.0728983568767457"
"22","San Francisco","CA",2956,73300,17.6557517698011,3.50908876856514,0.198750459018527,-122.4429,37.7561,"Annual estimated Salary in  San Francisco : $ 73300","Daily estimated Click per job in  San Francisco :  17.6557517698011 clicks","Daily estimated Local Click ratio per job in  San Francisco : $ 0.198750459018527"
"23","Summit","NJ",63,71200,20.7140009273489,1.41948287327618,0.068527701541329,-74.3648,40.7154,"Annual estimated Salary in  Summit : $ 71200","Daily estimated Click per job in  Summit :  20.7140009273489 clicks","Daily estimated Local Click ratio per job in  Summit : $ 0.068527701541329"
"24","Palo Alto","CA",423,70700,16.4829395992064,1.22206527507897,0.0741412214565057,-122.1465,37.3917,"Annual estimated Salary in  Palo Alto : $ 70700","Daily estimated Click per job in  Palo Alto :  16.4829395992064 clicks","Daily estimated Local Click ratio per job in  Palo Alto : $ 0.0741412214565057"
"25","El Segundo","CA",211,70400,17.7350200959891,1.11543957920555,0.0628947457160094,-118.4021,33.9169,"Annual estimated Salary in  El Segundo : $ 70400","Daily estimated Click per job in  El Segundo :  17.7350200959891 clicks","Daily estimated Local Click ratio per job in  El Segundo : $ 0.0628947457160094"
"26","Santa Clara","CA",530,70350,17.9264285779343,1.56761060539518,0.0874468998986643,-121.9679,37.3646,"Annual estimated Salary in  Santa Clara : $ 70350","Daily estimated Click per job in  Santa Clara :  17.9264285779343 clicks","Daily estimated Local Click ratio per job in  Santa Clara : $ 0.0874468998986643"
"27","Deerfield","IL",103,69100,19.7175286745772,1.25699366270287,0.0637500613514298,-87.8515,42.1655,"Annual estimated Salary in  Deerfield : $ 69100","Daily estimated Click per job in  Deerfield :  19.7175286745772 clicks","Daily estimated Local Click ratio per job in  Deerfield : $ 0.0637500613514298"
"28","Bedford","MA",67,68400,15.5683815766017,1.05295685690211,0.0676343171395948,NA,NA,"Annual estimated Salary in  Bedford : $ 68400","Daily estimated Click per job in  Bedford :  15.5683815766017 clicks","Daily estimated Local Click ratio per job in  Bedford : $ 0.0676343171395948"
"29","New York","NY",7033,68400,27.5164301529614,4.54030229011339,0.165003318558194,-73.9249,40.6943,"Annual estimated Salary in  New York : $ 68400","Daily estimated Click per job in  New York :  27.5164301529614 clicks","Daily estimated Local Click ratio per job in  New York : $ 0.165003318558194"
"30","Menlo Park","CA",192,67450,19.0389237259877,1.18311120499615,0.0621417062237203,-122.1662,37.4689,"Annual estimated Salary in  Menlo Park : $ 67450","Daily estimated Click per job in  Menlo Park :  19.0389237259877 clicks","Daily estimated Local Click ratio per job in  Menlo Park : $ 0.0621417062237203"
"31","Redwood City","CA",286,67100,16.249235416315,1.51312583856124,0.0931198176279718,-122.2251,37.5026,"Annual estimated Salary in  Redwood City : $ 67100","Daily estimated Click per job in  Redwood City :  16.249235416315 clicks","Daily estimated Local Click ratio per job in  Redwood City : $ 0.0931198176279718"
"32","Chantilly","VA",272,66800,17.2378715253475,1.40740464413457,0.0816460803797643,-77.4453,38.8868,"Annual estimated Salary in  Chantilly : $ 66800","Daily estimated Click per job in  Chantilly :  17.2378715253475 clicks","Daily estimated Local Click ratio per job in  Chantilly : $ 0.0816460803797643"
"33","Malvern","PA",135,65900,23.0739631128086,1.48898128126439,0.0645307992382912,-75.5146,40.0329,"Annual estimated Salary in  Malvern : $ 65900","Daily estimated Click per job in  Malvern :  23.0739631128086 clicks","Daily estimated Local Click ratio per job in  Malvern : $ 0.0645307992382912"
"34","South San Francisco","CA",142,65900,16.0616408851503,1.39533975910534,0.0868740478686325,-122.4197,37.6537,"Annual estimated Salary in  South San Francisco : $ 65900","Daily estimated Click per job in  South San Francisco :  16.0616408851503 clicks","Daily estimated Local Click ratio per job in  South San Francisco : $ 0.0868740478686325"
"35","Cambridge","MA",542,65750,19.9953737650812,1.83733872563191,0.0918881910995104,-71.1184,42.3758,"Annual estimated Salary in  Cambridge : $ 65750","Daily estimated Click per job in  Cambridge :  19.9953737650812 clicks","Daily estimated Local Click ratio per job in  Cambridge : $ 0.0918881910995104"
"36","Lexington","MA",101,65600,15.6810073131182,1.30170943578004,0.0830118505646682,-71.2307,42.4456,"Annual estimated Salary in  Lexington : $ 65600","Daily estimated Click per job in  Lexington :  15.6810073131182 clicks","Daily estimated Local Click ratio per job in  Lexington : $ 0.0830118505646682"
"37","Springfield","VA",256,65450,19.2621764842796,1.77301761028858,0.0920465873488175,-77.1839,38.7809,"Annual estimated Salary in  Springfield : $ 65450","Daily estimated Click per job in  Springfield :  19.2621764842796 clicks","Daily estimated Local Click ratio per job in  Springfield : $ 0.0920465873488175"
"38","Arlington","VA",700,65100,19.6678198162118,2.08332641672307,0.105925640777216,-77.1011,38.8786,"Annual estimated Salary in  Arlington : $ 65100","Daily estimated Click per job in  Arlington :  19.6678198162118 clicks","Daily estimated Local Click ratio per job in  Arlington : $ 0.105925640777216"
"39","Washington","DC",2630,65100,24.0442758976391,4.57412732619868,0.190237682584894,-77.0163,38.9047,"Annual estimated Salary in  Washington : $ 65100","Daily estimated Click per job in  Washington :  24.0442758976391 clicks","Daily estimated Local Click ratio per job in  Washington : $ 0.190237682584894"
"40","San Ramon","CA",214,64350,17.5759751021975,1.6020433511337,0.0911496142784929,-121.9366,37.7625,"Annual estimated Salary in  San Ramon : $ 64350","Daily estimated Click per job in  San Ramon :  17.5759751021975 clicks","Daily estimated Local Click ratio per job in  San Ramon : $ 0.0911496142784929"
"41","Manhattan","NY",283,64300,34.3108217845924,1.06367742551279,0.0310012226518704,-73.9662,40.7834,"Annual estimated Salary in  Manhattan : $ 64300","Daily estimated Click per job in  Manhattan :  34.3108217845924 clicks","Daily estimated Local Click ratio per job in  Manhattan : $ 0.0310012226518704"
"42","Dayton","OH",979,62900,19.2014864476521,4.78443289119536,0.249169922559844,-84.1999,39.7798,"Annual estimated Salary in  Dayton : $ 62900","Daily estimated Click per job in  Dayton :  19.2014864476521 clicks","Daily estimated Local Click ratio per job in  Dayton : $ 0.249169922559844"
"43","Aberdeen Proving Ground","MD",83,62700,15.9694606798901,1.40865492324026,0.0882092984526487,NA,NA,"Annual estimated Salary in  Aberdeen Proving Ground : $ 62700","Daily estimated Click per job in  Aberdeen Proving Ground :  15.9694606798901 clicks","Daily estimated Local Click ratio per job in  Aberdeen Proving Ground : $ 0.0882092984526487"
"44","Boston","MA",2260,62550,21.2737252774918,3.50615666630318,0.164811598371668,-71.0838,42.3189,"Annual estimated Salary in  Boston : $ 62550","Daily estimated Click per job in  Boston :  21.2737252774918 clicks","Daily estimated Local Click ratio per job in  Boston : $ 0.164811598371668"
"45","Auburn Hills","MI",288,62400,21.0629618390738,1.39730301405787,0.0663393412917711,-83.2447,42.6734,"Annual estimated Salary in  Auburn Hills : $ 62400","Daily estimated Click per job in  Auburn Hills :  21.0629618390738 clicks","Daily estimated Local Click ratio per job in  Auburn Hills : $ 0.0663393412917711"
"46","Dover","NH",130,62100,23.2147725015897,3.24086309450828,0.139603482837764,-70.8845,43.1887,"Annual estimated Salary in  Dover : $ 62100","Daily estimated Click per job in  Dover :  23.2147725015897 clicks","Daily estimated Local Click ratio per job in  Dover : $ 0.139603482837764"
"47","Aberdeen","MD",102,61950,19.950745977435,2.04262467682693,0.102383373490756,-76.1731,39.5146,"Annual estimated Salary in  Aberdeen : $ 61950","Daily estimated Click per job in  Aberdeen :  19.950745977435 clicks","Daily estimated Local Click ratio per job in  Aberdeen : $ 0.102383373490756"
"48","Emeryville","CA",101,61700,15.0868300240012,1.24437055041909,0.0824805839556395,-122.2932,37.8382,"Annual estimated Salary in  Emeryville : $ 61700","Daily estimated Click per job in  Emeryville :  15.0868300240012 clicks","Daily estimated Local Click ratio per job in  Emeryville : $ 0.0824805839556395"
"49","Waltham","MA",245,61300,18.398945684486,1.90370720865679,0.103468277003611,-71.2423,42.3889,"Annual estimated Salary in  Waltham : $ 61300","Daily estimated Click per job in  Waltham :  18.398945684486 clicks","Daily estimated Local Click ratio per job in  Waltham : $ 0.103468277003611"
"50","Hartford","CT",415,61000,24.9332375661707,3.02159389314882,0.121187386320359,-72.6834,41.7661,"Annual estimated Salary in  Hartford : $ 61000","Daily estimated Click per job in  Hartford :  24.9332375661707 clicks","Daily estimated Local Click ratio per job in  Hartford : $ 0.121187386320359"
"51","Pleasanton","CA",229,59900,23.8518108184477,1.81657853440232,0.0761610323102734,-121.8805,37.666,"Annual estimated Salary in  Pleasanton : $ 59900","Daily estimated Click per job in  Pleasanton :  23.8518108184477 clicks","Daily estimated Local Click ratio per job in  Pleasanton : $ 0.0761610323102734"
"52","Danville","PA",77,59800,15.7614362368451,1.82492694506702,0.115784305290716,-76.612,40.9615,"Annual estimated Salary in  Danville : $ 59800","Daily estimated Click per job in  Danville :  15.7614362368451 clicks","Daily estimated Local Click ratio per job in  Danville : $ 0.115784305290716"
"53","Lincolnshire","IL",57,59500,17.5481814447476,0.957025281621361,0.0545370062780956,-87.9179,42.1961,"Annual estimated Salary in  Lincolnshire : $ 59500","Daily estimated Click per job in  Lincolnshire :  17.5481814447476 clicks","Daily estimated Local Click ratio per job in  Lincolnshire : $ 0.0545370062780956"
"54","Seattle","WA",2435,58400,19.7728106501252,5.24387308068128,0.265206255876834,-122.3238,47.6217,"Annual estimated Salary in  Seattle : $ 58400","Daily estimated Click per job in  Seattle :  19.7728106501252 clicks","Daily estimated Local Click ratio per job in  Seattle : $ 0.265206255876834"
"55","Vienna","VA",140,58400,17.9166872025684,1.51055725613673,0.0843100758001842,-77.2597,38.8996,"Annual estimated Salary in  Vienna : $ 58400","Daily estimated Click per job in  Vienna :  17.9166872025684 clicks","Daily estimated Local Click ratio per job in  Vienna : $ 0.0843100758001842"
"56","Lebanon","NH",88,58350,13.6585239707957,1.62491389170356,0.118967019802279,-72.2531,43.6353,"Annual estimated Salary in  Lebanon : $ 58350","Daily estimated Click per job in  Lebanon :  13.6585239707957 clicks","Daily estimated Local Click ratio per job in  Lebanon : $ 0.118967019802279"
"57","Dearborn","MI",235,57000,24.0344390753499,2.0735270452082,0.0862731615540321,-83.213,42.3127,"Annual estimated Salary in  Dearborn : $ 57000","Daily estimated Click per job in  Dearborn :  24.0344390753499 clicks","Daily estimated Local Click ratio per job in  Dearborn : $ 0.0862731615540321"
"58","Chicago","IL",4410,56900,25.589855472532,10.2610803340033,0.400982348064353,-87.6861,41.8373,"Annual estimated Salary in  Chicago : $ 56900","Daily estimated Click per job in  Chicago :  25.589855472532 clicks","Daily estimated Local Click ratio per job in  Chicago : $ 0.400982348064353"
"59","Atlanta","GA",3503,56800,35.4363385068021,8.5095117740124,0.240135187002432,-84.4231,33.7627,"Annual estimated Salary in  Atlanta : $ 56800","Daily estimated Click per job in  Atlanta :  35.4363385068021 clicks","Daily estimated Local Click ratio per job in  Atlanta : $ 0.240135187002432"
"60","Windsor","CT",69,56600,19.7738720606881,1.48285987070144,0.0749908700810031,NA,NA,"Annual estimated Salary in  Windsor : $ 56600","Daily estimated Click per job in  Windsor :  19.7738720606881 clicks","Daily estimated Local Click ratio per job in  Windsor : $ 0.0749908700810031"
"61","Greenwood Village","CO",127,56500,21.5497274345711,1.09733472593251,0.0509210489675202,-104.913,39.6152,"Annual estimated Salary in  Greenwood Village : $ 56500","Daily estimated Click per job in  Greenwood Village :  21.5497274345711 clicks","Daily estimated Local Click ratio per job in  Greenwood Village : $ 0.0509210489675202"
"62","Richfield","MN",79,56200,19.2977967622807,0.988891165804793,0.051243734089773,-93.2826,44.8762,"Annual estimated Salary in  Richfield : $ 56200","Daily estimated Click per job in  Richfield :  19.2977967622807 clicks","Daily estimated Local Click ratio per job in  Richfield : $ 0.051243734089773"
"63","Livingston","NJ",72,56000,15.2274768507644,1.4145565338536,0.0928950047152816,NA,NA,"Annual estimated Salary in  Livingston : $ 56000","Daily estimated Click per job in  Livingston :  15.2274768507644 clicks","Daily estimated Local Click ratio per job in  Livingston : $ 0.0928950047152816"
"64","Greenbelt","MD",58,55500,21.2431326525796,1.74080471854129,0.0819467047074102,-76.8885,38.9953,"Annual estimated Salary in  Greenbelt : $ 55500","Daily estimated Click per job in  Greenbelt :  21.2431326525796 clicks","Daily estimated Local Click ratio per job in  Greenbelt : $ 0.0819467047074102"
"65","East Hartford","CT",62,55200,20.3633579438162,2.35394879678532,0.11559728033461,-72.6152,41.7634,"Annual estimated Salary in  East Hartford : $ 55200","Daily estimated Click per job in  East Hartford :  20.3633579438162 clicks","Daily estimated Local Click ratio per job in  East Hartford : $ 0.11559728033461"
"66","Andover","MA",112,55150,24.3743231835731,1.72814235795547,0.0709001166900151,-71.1418,42.6554,"Annual estimated Salary in  Andover : $ 55150","Daily estimated Click per job in  Andover :  24.3743231835731 clicks","Daily estimated Local Click ratio per job in  Andover : $ 0.0709001166900151"
"67","Piscataway","NJ",78,55050,25.6211092007941,1.90391122829096,0.0743102577398152,-74.399,40.4993,"Annual estimated Salary in  Piscataway : $ 55050","Daily estimated Click per job in  Piscataway :  25.6211092007941 clicks","Daily estimated Local Click ratio per job in  Piscataway : $ 0.0743102577398152"
"68","East Hanover","NJ",77,54400,20.1712823603454,1.31800887766427,0.0653408570718999,-74.3649,40.8201,"Annual estimated Salary in  East Hanover : $ 54400","Daily estimated Click per job in  East Hanover :  20.1712823603454 clicks","Daily estimated Local Click ratio per job in  East Hanover : $ 0.0653408570718999"
"69","Dulles","VA",81,54300,18.3198893683102,0.843161330002786,0.0460243679998029,NA,NA,"Annual estimated Salary in  Dulles : $ 54300","Daily estimated Click per job in  Dulles :  18.3198893683102 clicks","Daily estimated Local Click ratio per job in  Dulles : $ 0.0460243679998029"
"70","San Bruno","CA",88,54200,14.3878997411364,1.63816142813868,0.113856883743429,-122.4313,37.6254,"Annual estimated Salary in  San Bruno : $ 54200","Daily estimated Click per job in  San Bruno :  14.3878997411364 clicks","Daily estimated Local Click ratio per job in  San Bruno : $ 0.113856883743429"
"71","Bethesda","MD",358,54150,21.4516379524488,1.56180498874418,0.0728058618277162,-77.1188,38.9866,"Annual estimated Salary in  Bethesda : $ 54150","Daily estimated Click per job in  Bethesda :  21.4516379524488 clicks","Daily estimated Local Click ratio per job in  Bethesda : $ 0.0728058618277162"
"72","Irvine","CA",965,53800,21.4577743593273,2.76335811322165,0.128781208477033,-117.7738,33.6772,"Annual estimated Salary in  Irvine : $ 53800","Daily estimated Click per job in  Irvine :  21.4577743593273 clicks","Daily estimated Local Click ratio per job in  Irvine : $ 0.128781208477033"
"73","San Carlos","CA",58,53650,16.2137877556992,1.21040857564976,0.074653041836217,-122.268,37.4982,"Annual estimated Salary in  San Carlos : $ 53650","Daily estimated Click per job in  San Carlos :  16.2137877556992 clicks","Daily estimated Local Click ratio per job in  San Carlos : $ 0.074653041836217"
"74","Plano","TX",838,53550,27.3098685390758,2.9574371390959,0.108291884849768,-96.7487,33.0502,"Annual estimated Salary in  Plano : $ 53550","Daily estimated Click per job in  Plano :  27.3098685390758 clicks","Daily estimated Local Click ratio per job in  Plano : $ 0.108291884849768"
"75","Conshohocken","PA",58,53400,22.8646401457446,1.32525963519222,0.0579610974301235,-75.3035,40.0772,"Annual estimated Salary in  Conshohocken : $ 53400","Daily estimated Click per job in  Conshohocken :  22.8646401457446 clicks","Daily estimated Local Click ratio per job in  Conshohocken : $ 0.0579610974301235"
"76","La Jolla","CA",107,53100,17.7610152084477,1.50133652169229,0.0845298821082149,NA,NA,"Annual estimated Salary in  La Jolla : $ 53100","Daily estimated Click per job in  La Jolla :  17.7610152084477 clicks","Daily estimated Local Click ratio per job in  La Jolla : $ 0.0845298821082149"
"77","Florham Park","NJ",63,53000,25.3382051721816,1.34379479117552,0.0530343322285058,-74.3953,40.7772,"Annual estimated Salary in  Florham Park : $ 53000","Daily estimated Click per job in  Florham Park :  25.3382051721816 clicks","Daily estimated Local Click ratio per job in  Florham Park : $ 0.0530343322285058"
"78","Bellevue","WA",570,52950,16.9398868286414,2.00249787533171,0.118211998438263,-122.155,47.5953,"Annual estimated Salary in  Bellevue : $ 52950","Daily estimated Click per job in  Bellevue :  16.9398868286414 clicks","Daily estimated Local Click ratio per job in  Bellevue : $ 0.118211998438263"
"79","Morristown","NJ",149,52900,25.6429531009124,2.10859477748338,0.0822290150898553,-74.4772,40.7966,"Annual estimated Salary in  Morristown : $ 52900","Daily estimated Click per job in  Morristown :  25.6429531009124 clicks","Daily estimated Local Click ratio per job in  Morristown : $ 0.0822290150898553"
"80","Watertown","MA",82,52700,17.3327573089606,1.73743471398307,0.10023994930598,-71.1775,42.37,"Annual estimated Salary in  Watertown : $ 52700","Daily estimated Click per job in  Watertown :  17.3327573089606 clicks","Daily estimated Local Click ratio per job in  Watertown : $ 0.10023994930598"
"81","Falls Church","VA",224,52600,16.4112772710285,1.45861099656563,0.0888785785820937,-77.1751,38.8846,"Annual estimated Salary in  Falls Church : $ 52600","Daily estimated Click per job in  Falls Church :  16.4112772710285 clicks","Daily estimated Local Click ratio per job in  Falls Church : $ 0.0888785785820937"
"82","Rockville","MD",357,52600,24.1494003205589,2.22405680800418,0.0920957364771824,-77.1553,39.0834,"Annual estimated Salary in  Rockville : $ 52600","Daily estimated Click per job in  Rockville :  24.1494003205589 clicks","Daily estimated Local Click ratio per job in  Rockville : $ 0.0920957364771824"
"83","Tarrytown","NY",66,52500,19.4093848949312,1.15760609722994,0.0596415653301949,-73.8673,41.0647,"Annual estimated Salary in  Tarrytown : $ 52500","Daily estimated Click per job in  Tarrytown :  19.4093848949312 clicks","Daily estimated Local Click ratio per job in  Tarrytown : $ 0.0596415653301949"
"84","Huntsville","AL",504,52400,26.4353336547445,5.41194946573623,0.204724083925641,NA,NA,"Annual estimated Salary in  Huntsville : $ 52400","Daily estimated Click per job in  Huntsville :  26.4353336547445 clicks","Daily estimated Local Click ratio per job in  Huntsville : $ 0.204724083925641"
"85","Long Island","NY",126,52350,22.3597531923224,1.10135541702989,0.0492561526756055,NA,NA,"Annual estimated Salary in  Long Island : $ 52350","Daily estimated Click per job in  Long Island :  22.3597531923224 clicks","Daily estimated Local Click ratio per job in  Long Island : $ 0.0492561526756055"
"86","San Jose","CA",1581,51700,17.2591230276207,4.87722774391569,0.282588387376948,-121.8488,37.302,"Annual estimated Salary in  San Jose : $ 51700","Daily estimated Click per job in  San Jose :  17.2591230276207 clicks","Daily estimated Local Click ratio per job in  San Jose : $ 0.282588387376948"
"87","Stamford","CT",283,51700,23.3646845900721,3.63161586728335,0.15543183787837,-73.5583,41.1035,"Annual estimated Salary in  Stamford : $ 51700","Daily estimated Click per job in  Stamford :  23.3646845900721 clicks","Daily estimated Local Click ratio per job in  Stamford : $ 0.15543183787837"
"88","Alpharetta","GA",494,51550,25.9192380935225,2.77630234577907,0.107113578561281,-84.2739,34.0704,"Annual estimated Salary in  Alpharetta : $ 51550","Daily estimated Click per job in  Alpharetta :  25.9192380935225 clicks","Daily estimated Local Click ratio per job in  Alpharetta : $ 0.107113578561281"
"89","San Mateo","CA",272,51550,17.0271017688035,1.95941749673576,0.115076395463011,-122.3122,37.5522,"Annual estimated Salary in  San Mateo : $ 51550","Daily estimated Click per job in  San Mateo :  17.0271017688035 clicks","Daily estimated Local Click ratio per job in  San Mateo : $ 0.115076395463011"
"90","Wilmington","DE",404,51450,25.747482556761,4.47696938452225,0.173879888049352,-75.5286,39.7349,"Annual estimated Salary in  Wilmington : $ 51450","Daily estimated Click per job in  Wilmington :  25.747482556761 clicks","Daily estimated Local Click ratio per job in  Wilmington : $ 0.173879888049352"
"91","Burlington","MA",202,51400,17.5440651175008,1.30211209853673,0.0742195203800188,-71.2027,42.5022,"Annual estimated Salary in  Burlington : $ 51400","Daily estimated Click per job in  Burlington :  17.5440651175008 clicks","Daily estimated Local Click ratio per job in  Burlington : $ 0.0742195203800188"
"92","New Haven","CT",205,51400,28.2935502468002,4.90111451891824,0.173223737430142,-72.9245,41.3112,"Annual estimated Salary in  New Haven : $ 51400","Daily estimated Click per job in  New Haven :  28.2935502468002 clicks","Daily estimated Local Click ratio per job in  New Haven : $ 0.173223737430142"
"93","Rock Island","IL",59,51400,20.3702702305492,2.57149186957416,0.1262374941751,-90.5827,41.4699,"Annual estimated Salary in  Rock Island : $ 51400","Daily estimated Click per job in  Rock Island :  20.3702702305492 clicks","Daily estimated Local Click ratio per job in  Rock Island : $ 0.1262374941751"
"94","Morrisville","NC",127,51300,30.8870329408831,1.33104982362266,0.0430941303481708,-78.8349,35.8359,"Annual estimated Salary in  Morrisville : $ 51300","Daily estimated Click per job in  Morrisville :  30.8870329408831 clicks","Daily estimated Local Click ratio per job in  Morrisville : $ 0.0430941303481708"
"95","Princeton","NJ",265,51100,20.613583180269,1.39469748308838,0.0676591483824783,-74.6694,40.3563,"Annual estimated Salary in  Princeton : $ 51100","Daily estimated Click per job in  Princeton :  20.613583180269 clicks","Daily estimated Local Click ratio per job in  Princeton : $ 0.0676591483824783"
"96","Farmington Hills","MI",141,50800,19.8816747735857,1.03042444315606,0.0518278492577019,-83.3771,42.486,"Annual estimated Salary in  Farmington Hills : $ 50800","Daily estimated Click per job in  Farmington Hills :  19.8816747735857 clicks","Daily estimated Local Click ratio per job in  Farmington Hills : $ 0.0518278492577019"
"97","Somerset","NJ",130,50700,24.7923863669926,1.92128301449764,0.0774948803256611,-74.501,40.5082,"Annual estimated Salary in  Somerset : $ 50700","Daily estimated Click per job in  Somerset :  24.7923863669926 clicks","Daily estimated Local Click ratio per job in  Somerset : $ 0.0774948803256611"
"98","Miami Lakes","FL",54,50600,28.4623035572543,1.096312708782,0.0385180597409019,-80.3214,25.9125,"Annual estimated Salary in  Miami Lakes : $ 50600","Daily estimated Click per job in  Miami Lakes :  28.4623035572543 clicks","Daily estimated Local Click ratio per job in  Miami Lakes : $ 0.0385180597409019"
"99","Miramar","FL",91,50600,33.6270325566183,1.11784107502997,0.0332423348134525,-80.3357,25.9773,"Annual estimated Salary in  Miramar : $ 50600","Daily estimated Click per job in  Miramar :  33.6270325566183 clicks","Daily estimated Local Click ratio per job in  Miramar : $ 0.0332423348134525"
"100","Shelton","CT",71,50300,22.1918623517835,2.17294715423854,0.0979163947483615,-73.1383,41.306,"Annual estimated Salary in  Shelton : $ 50300","Daily estimated Click per job in  Shelton :  22.1918623517835 clicks","Daily estimated Local Click ratio per job in  Shelton : $ 0.0979163947483615"
"101","Woonsocket","RI",67,50200,21.5261598142374,2.10298884247148,0.0976945660823614,-71.4993,42.001,"Annual estimated Salary in  Woonsocket : $ 50200","Daily estimated Click per job in  Woonsocket :  21.5261598142374 clicks","Daily estimated Local Click ratio per job in  Woonsocket : $ 0.0976945660823614"
"102","Alexandria","VA",496,49800,21.0035951089441,3.38373190848336,0.161102510828846,-77.0861,38.8184,"Annual estimated Salary in  Alexandria : $ 49800","Daily estimated Click per job in  Alexandria :  21.0035951089441 clicks","Daily estimated Local Click ratio per job in  Alexandria : $ 0.161102510828846"
"103","Needham","MA",75,49600,21.9264178773945,1.35437736328761,0.0617692032898788,-71.241,42.2814,"Annual estimated Salary in  Needham : $ 49600","Daily estimated Click per job in  Needham :  21.9264178773945 clicks","Daily estimated Local Click ratio per job in  Needham : $ 0.0617692032898788"
"104","Loma Linda","CA",58,49550,26.8023797071548,2.01947227026591,0.0753467525022348,-117.2504,34.0448,"Annual estimated Salary in  Loma Linda : $ 49550","Daily estimated Click per job in  Loma Linda :  26.8023797071548 clicks","Daily estimated Local Click ratio per job in  Loma Linda : $ 0.0753467525022348"
"105","Minneapolis","MN",1536,49550,20.363610843837,6.68402371897071,0.328233718971978,-93.2679,44.9635,"Annual estimated Salary in  Minneapolis : $ 49550","Daily estimated Click per job in  Minneapolis :  20.363610843837 clicks","Daily estimated Local Click ratio per job in  Minneapolis : $ 0.328233718971978"
"106","Detroit","MI",895,49500,27.8544152879074,7.92034921657316,0.284348069586357,-83.1024,42.3834,"Annual estimated Salary in  Detroit : $ 49500","Daily estimated Click per job in  Detroit :  27.8544152879074 clicks","Daily estimated Local Click ratio per job in  Detroit : $ 0.284348069586357"
"107","Northbrook","IL",183,49400,19.1269498308707,1.43537371943522,0.0750445696845265,-87.8352,42.1292,"Annual estimated Salary in  Northbrook : $ 49400","Daily estimated Click per job in  Northbrook :  19.1269498308707 clicks","Daily estimated Local Click ratio per job in  Northbrook : $ 0.0750445696845265"
"108","Columbia","MD",328,49100,22.4419692746593,2.71307662206109,0.120892983537082,-76.859,39.2004,"Annual estimated Salary in  Columbia : $ 49100","Daily estimated Click per job in  Columbia :  22.4419692746593 clicks","Daily estimated Local Click ratio per job in  Columbia : $ 0.120892983537082"
"109","North Mankato","MN",85,49100,20.4798330503076,1.32201131374491,0.0645518598954135,-94.0377,44.181,"Annual estimated Salary in  North Mankato : $ 49100","Daily estimated Click per job in  North Mankato :  20.4798330503076 clicks","Daily estimated Local Click ratio per job in  North Mankato : $ 0.0645518598954135"
"110","Rolling Meadows","IL",75,49100,19.7744094287316,1.22497629975923,0.0619475541949375,-88.0252,42.0747,"Annual estimated Salary in  Rolling Meadows : $ 49100","Daily estimated Click per job in  Rolling Meadows :  19.7744094287316 clicks","Daily estimated Local Click ratio per job in  Rolling Meadows : $ 0.0619475541949375"
"111","Buffalo Grove","IL",78,49050,19.3609316796839,1.66652595716014,0.0860767438639784,-87.9615,42.1673,"Annual estimated Salary in  Buffalo Grove : $ 49050","Daily estimated Click per job in  Buffalo Grove :  19.3609316796839 clicks","Daily estimated Local Click ratio per job in  Buffalo Grove : $ 0.0860767438639784"
"112","Richland","WA",99,49000,25.3532592917403,4.6354505262761,0.182834501589555,-119.2939,46.2828,"Annual estimated Salary in  Richland : $ 49000","Daily estimated Click per job in  Richland :  25.3532592917403 clicks","Daily estimated Local Click ratio per job in  Richland : $ 0.182834501589555"
"113","Eureka","CA",56,48950,18.2067650274097,3.46250459653311,0.190176815668265,NA,NA,"Annual estimated Salary in  Eureka : $ 48950","Daily estimated Click per job in  Eureka :  18.2067650274097 clicks","Daily estimated Local Click ratio per job in  Eureka : $ 0.190176815668265"
"114","Pasadena","CA",285,48800,25.3577773123129,3.14303229051472,0.123947467942648,-118.1389,34.1598,"Annual estimated Salary in  Pasadena : $ 48800","Daily estimated Click per job in  Pasadena :  25.3577773123129 clicks","Daily estimated Local Click ratio per job in  Pasadena : $ 0.123947467942648"
"115","Charlotte","NC",2310,48750,31.201422529019,9.87773377635515,0.316579597201645,-80.8308,35.208,"Annual estimated Salary in  Charlotte : $ 48750","Daily estimated Click per job in  Charlotte :  31.201422529019 clicks","Daily estimated Local Click ratio per job in  Charlotte : $ 0.316579597201645"
"116","Stratford","CT",84,48750,18.8053191004082,1.77328354157228,0.0942969131288914,-73.1305,41.207,"Annual estimated Salary in  Stratford : $ 48750","Daily estimated Click per job in  Stratford :  18.8053191004082 clicks","Daily estimated Local Click ratio per job in  Stratford : $ 0.0942969131288914"
"117","Oakland","CA",562,48550,20.4034902873044,3.80667508972518,0.186569799388382,-122.2165,37.7903,"Annual estimated Salary in  Oakland : $ 48550","Daily estimated Click per job in  Oakland :  20.4034902873044 clicks","Daily estimated Local Click ratio per job in  Oakland : $ 0.186569799388382"
"118","Owings Mills","MD",106,48550,22.6291594707073,2.65204269952382,0.117195811137254,-76.7913,39.4115,"Annual estimated Salary in  Owings Mills : $ 48550","Daily estimated Click per job in  Owings Mills :  22.6291594707073 clicks","Daily estimated Local Click ratio per job in  Owings Mills : $ 0.117195811137254"
"119","Lake Forest","IL",87,48400,21.3222436888455,1.30915298820849,0.0613984629062913,-87.8596,42.238,"Annual estimated Salary in  Lake Forest : $ 48400","Daily estimated Click per job in  Lake Forest :  21.3222436888455 clicks","Daily estimated Local Click ratio per job in  Lake Forest : $ 0.0613984629062913"
"120","Los Angeles","CA",3307,48300,24.3758337578667,6.54595210039981,0.268542695418049,-118.4068,34.114,"Annual estimated Salary in  Los Angeles : $ 48300","Daily estimated Click per job in  Los Angeles :  24.3758337578667 clicks","Daily estimated Local Click ratio per job in  Los Angeles : $ 0.268542695418049"
"121","Raleigh","NC",1193,48300,27.3460277159826,5.97515954796284,0.218501919548286,-78.6441,35.8323,"Annual estimated Salary in  Raleigh : $ 48300","Daily estimated Click per job in  Raleigh :  27.3460277159826 clicks","Daily estimated Local Click ratio per job in  Raleigh : $ 0.218501919548286"
"122","San Diego","CA",2391,48300,22.6576143077363,6.52947316321714,0.288180082621836,-117.1225,32.8312,"Annual estimated Salary in  San Diego : $ 48300","Daily estimated Click per job in  San Diego :  22.6576143077363 clicks","Daily estimated Local Click ratio per job in  San Diego : $ 0.288180082621836"
"123","Irving","TX",732,48150,29.3927681543237,3.80961429791199,0.129610599379752,-96.9702,32.8584,"Annual estimated Salary in  Irving : $ 48150","Daily estimated Click per job in  Irving :  29.3927681543237 clicks","Daily estimated Local Click ratio per job in  Irving : $ 0.129610599379752"
"124","Baltimore","MD",1528,47800,24.7956725441885,6.48786117234215,0.261652962257027,-76.6144,39.3051,"Annual estimated Salary in  Baltimore : $ 47800","Daily estimated Click per job in  Baltimore :  24.7956725441885 clicks","Daily estimated Local Click ratio per job in  Baltimore : $ 0.261652962257027"
"125","Mount Laurel","NJ",146,47700,28.5407147241988,2.35179415057228,0.0824013754840647,NA,NA,"Annual estimated Salary in  Mount Laurel : $ 47700","Daily estimated Click per job in  Mount Laurel :  28.5407147241988 clicks","Daily estimated Local Click ratio per job in  Mount Laurel : $ 0.0824013754840647"
"126","Pontiac","MI",85,47600,20.1049660219803,2.05487379991815,0.102207275439889,-83.2878,42.6493,"Annual estimated Salary in  Pontiac : $ 47600","Daily estimated Click per job in  Pontiac :  20.1049660219803 clicks","Daily estimated Local Click ratio per job in  Pontiac : $ 0.102207275439889"
"127","Farmington","CT",69,47500,25.6566053271864,1.76781154589369,0.0689027844233342,NA,NA,"Annual estimated Salary in  Farmington : $ 47500","Daily estimated Click per job in  Farmington :  25.6566053271864 clicks","Daily estimated Local Click ratio per job in  Farmington : $ 0.0689027844233342"
"128","Lanham","MD",53,47400,22.1782149001519,2.03819160130415,0.0919006155581162,-76.8421,38.9621,"Annual estimated Salary in  Lanham : $ 47400","Daily estimated Click per job in  Lanham :  22.1782149001519 clicks","Daily estimated Local Click ratio per job in  Lanham : $ 0.0919006155581162"
"129","Bridgeport","CT",101,47200,25.5392571736278,5.17900561197488,0.202786070744563,-73.1958,41.1909,"Annual estimated Salary in  Bridgeport : $ 47200","Daily estimated Click per job in  Bridgeport :  25.5392571736278 clicks","Daily estimated Local Click ratio per job in  Bridgeport : $ 0.202786070744563"
"130","Long Island City","NY",106,47200,35.8366506180136,1.35445636416151,0.0377952833427096,NA,NA,"Annual estimated Salary in  Long Island City : $ 47200","Daily estimated Click per job in  Long Island City :  35.8366506180136 clicks","Daily estimated Local Click ratio per job in  Long Island City : $ 0.0377952833427096"
"131","Hershey","PA",115,47000,17.9197781051002,1.38439706602382,0.0772552571747412,-76.6458,40.2806,"Annual estimated Salary in  Hershey : $ 47000","Daily estimated Click per job in  Hershey :  17.9197781051002 clicks","Daily estimated Local Click ratio per job in  Hershey : $ 0.0772552571747412"
"132","Maitland","FL",71,47000,26.4527552868492,1.30357431142363,0.0492793396108605,-81.3716,28.6293,"Annual estimated Salary in  Maitland : $ 47000","Daily estimated Click per job in  Maitland :  26.4527552868492 clicks","Daily estimated Local Click ratio per job in  Maitland : $ 0.0492793396108605"
"133","Newark","DE",239,47000,23.8101433630773,3.67846173924736,0.154491372989867,-75.7573,39.6777,"Annual estimated Salary in  Newark : $ 47000","Daily estimated Click per job in  Newark :  23.8101433630773 clicks","Daily estimated Local Click ratio per job in  Newark : $ 0.154491372989867"
"134","Bentonville","AR",137,46900,21.292988697841,3.79566417433611,0.178258873293863,-94.2286,36.3579,"Annual estimated Salary in  Bentonville : $ 46900","Daily estimated Click per job in  Bentonville :  21.292988697841 clicks","Daily estimated Local Click ratio per job in  Bentonville : $ 0.178258873293863"
"135","Santa Monica","CA",311,46800,20.7383612741051,1.84927684333762,0.089171792259532,-118.4813,34.0232,"Annual estimated Salary in  Santa Monica : $ 46800","Daily estimated Click per job in  Santa Monica :  20.7383612741051 clicks","Daily estimated Local Click ratio per job in  Santa Monica : $ 0.089171792259532"
"136","New Brunswick","NJ",133,46600,25.0886563372542,1.569778749453,0.0625692635090238,-74.445,40.487,"Annual estimated Salary in  New Brunswick : $ 46600","Daily estimated Click per job in  New Brunswick :  25.0886563372542 clicks","Daily estimated Local Click ratio per job in  New Brunswick : $ 0.0625692635090238"
"137","Peachtree City","GA",70,46600,26.9507944859115,2.30220973399902,0.0854227037797529,-84.5711,33.3943,"Annual estimated Salary in  Peachtree City : $ 46600","Daily estimated Click per job in  Peachtree City :  26.9507944859115 clicks","Daily estimated Local Click ratio per job in  Peachtree City : $ 0.0854227037797529"
"138","Newark","NJ",371,46400,34.0808441115649,5.83270940274795,0.171143337402512,-74.1724,40.7242,"Annual estimated Salary in  Newark : $ 46400","Daily estimated Click per job in  Newark :  34.0808441115649 clicks","Daily estimated Local Click ratio per job in  Newark : $ 0.171143337402512"
"139","Albany","NY",494,46300,22.1815732319769,4.41130365731771,0.198872442959022,-73.7987,42.6664,"Annual estimated Salary in  Albany : $ 46300","Daily estimated Click per job in  Albany :  22.1815732319769 clicks","Daily estimated Local Click ratio per job in  Albany : $ 0.198872442959022"
"140","Bridgewater","NJ",152,46300,19.4155997563339,1.77997668007488,0.0916776562358932,NA,NA,"Annual estimated Salary in  Bridgewater : $ 46300","Daily estimated Click per job in  Bridgewater :  19.4155997563339 clicks","Daily estimated Local Click ratio per job in  Bridgewater : $ 0.0916776562358932"
"141","Framingham","MA",189,46200,19.8766050378129,2.20519543763905,0.110944270082538,-71.4367,42.3085,"Annual estimated Salary in  Framingham : $ 46200","Daily estimated Click per job in  Framingham :  19.8766050378129 clicks","Daily estimated Local Click ratio per job in  Framingham : $ 0.110944270082538"
"142","Greenville","NC",244,46200,26.2906725872791,7.05833311169426,0.268472899970976,-77.3764,35.5958,"Annual estimated Salary in  Greenville : $ 46200","Daily estimated Click per job in  Greenville :  26.2906725872791 clicks","Daily estimated Local Click ratio per job in  Greenville : $ 0.268472899970976"
"143","Quincy","MA",114,46200,20.2734354932958,2.183461949116,0.107700638593693,-71.0183,42.2516,"Annual estimated Salary in  Quincy : $ 46200","Daily estimated Click per job in  Quincy :  20.2734354932958 clicks","Daily estimated Local Click ratio per job in  Quincy : $ 0.107700638593693"
"144","Dallas","TX",3182,46100,26.5530626392652,6.15231587698199,0.231698917769443,-96.7659,32.7938,"Annual estimated Salary in  Dallas : $ 46100","Daily estimated Click per job in  Dallas :  26.5530626392652 clicks","Daily estimated Local Click ratio per job in  Dallas : $ 0.231698917769443"
"145","Horsham","PA",66,46100,25.5528443142647,1.31203661617202,0.0513460106450689,-75.1387,40.1825,"Annual estimated Salary in  Horsham : $ 46100","Daily estimated Click per job in  Horsham :  25.5528443142647 clicks","Daily estimated Local Click ratio per job in  Horsham : $ 0.0513460106450689"
"146","Moorestown","NJ",65,46100,17.3722909246012,1.13569881136503,0.0653741533741388,-74.9427,39.9671,"Annual estimated Salary in  Moorestown : $ 46100","Daily estimated Click per job in  Moorestown :  17.3722909246012 clicks","Daily estimated Local Click ratio per job in  Moorestown : $ 0.0653741533741388"
"147","Camden","NJ",86,46050,22.9195166471957,1.65070294868621,0.0720217173030209,-75.1072,39.9361,"Annual estimated Salary in  Camden : $ 46050","Daily estimated Click per job in  Camden :  22.9195166471957 clicks","Daily estimated Local Click ratio per job in  Camden : $ 0.0720217173030209"
"148","Cary","NC",325,46000,22.9636974537903,2.71668979223839,0.118303674645826,-78.8162,35.7815,"Annual estimated Salary in  Cary : $ 46000","Daily estimated Click per job in  Cary :  22.9636974537903 clicks","Daily estimated Local Click ratio per job in  Cary : $ 0.118303674645826"
"149","Lee's Summit","MO",77,46000,21.2196390711118,1.06975802920261,0.0504135827012708,NA,NA,"Annual estimated Salary in  Lee's Summit : $ 46000","Daily estimated Click per job in  Lee's Summit :  21.2196390711118 clicks","Daily estimated Local Click ratio per job in  Lee's Summit : $ 0.0504135827012708"
"150","Marlborough","MA",165,46000,19.0616533798833,2.28848169694379,0.120056830923122,-71.5468,42.3494,"Annual estimated Salary in  Marlborough : $ 46000","Daily estimated Click per job in  Marlborough :  19.0616533798833 clicks","Daily estimated Local Click ratio per job in  Marlborough : $ 0.120056830923122"
"151","Trenton","NJ",165,46000,21.3235702386477,4.17977956870304,0.196016873437424,-74.764,40.2237,"Annual estimated Salary in  Trenton : $ 46000","Daily estimated Click per job in  Trenton :  21.3235702386477 clicks","Daily estimated Local Click ratio per job in  Trenton : $ 0.196016873437424"
"152","Wilson","NC",77,46000,30.9658015702896,7.33326611222622,0.236818223341655,-77.9284,35.7311,"Annual estimated Salary in  Wilson : $ 46000","Daily estimated Click per job in  Wilson :  30.9658015702896 clicks","Daily estimated Local Click ratio per job in  Wilson : $ 0.236818223341655"
"153","Lumberton","NC",54,45950,25.0152021612559,6.48674794787268,0.259312233659239,-79.0181,34.6309,"Annual estimated Salary in  Lumberton : $ 45950","Daily estimated Click per job in  Lumberton :  25.0152021612559 clicks","Daily estimated Local Click ratio per job in  Lumberton : $ 0.259312233659239"
"154","Greenwich","CT",81,45900,28.7013527773412,1.78503600869834,0.062193445115506,-73.6298,41.0252,"Annual estimated Salary in  Greenwich : $ 45900","Daily estimated Click per job in  Greenwich :  28.7013527773412 clicks","Daily estimated Local Click ratio per job in  Greenwich : $ 0.062193445115506"
"155","St. Louis","MO",1737,45900,25.4220407951452,1.10495157814825,0.0434643145706564,NA,NA,"Annual estimated Salary in  St. Louis : $ 45900","Daily estimated Click per job in  St. Louis :  25.4220407951452 clicks","Daily estimated Local Click ratio per job in  St. Louis : $ 0.0434643145706564"
"156","Eden Prairie","MN",278,45850,18.5939942311984,1.70285127989568,0.0915807146502445,-93.4595,44.8487,"Annual estimated Salary in  Eden Prairie : $ 45850","Daily estimated Click per job in  Eden Prairie :  18.5939942311984 clicks","Daily estimated Local Click ratio per job in  Eden Prairie : $ 0.0915807146502445"
"157","Providence","RI",397,45800,23.4278419240844,4.10756753858481,0.175328463965865,-71.4186,41.8229,"Annual estimated Salary in  Providence : $ 45800","Daily estimated Click per job in  Providence :  23.4278419240844 clicks","Daily estimated Local Click ratio per job in  Providence : $ 0.175328463965865"
"158","Ashburn","VA",152,45750,17.9081509377341,3.1337047026321,0.174987619521851,-77.4712,39.0302,"Annual estimated Salary in  Ashburn : $ 45750","Daily estimated Click per job in  Ashburn :  17.9081509377341 clicks","Daily estimated Local Click ratio per job in  Ashburn : $ 0.174987619521851"
"159","Dallas-Fort Worth","TX",238,45750,32.2419878666858,1.16355563052677,0.0360882100488916,NA,NA,"Annual estimated Salary in  Dallas-Fort Worth : $ 45750","Daily estimated Click per job in  Dallas-Fort Worth :  32.2419878666858 clicks","Daily estimated Local Click ratio per job in  Dallas-Fort Worth : $ 0.0360882100488916"
"160","San Luis Obispo","CA",132,45750,18.4340527539302,2.64706683432824,0.143596574755591,-120.6689,35.2671,"Annual estimated Salary in  San Luis Obispo : $ 45750","Daily estimated Click per job in  San Luis Obispo :  18.4340527539302 clicks","Daily estimated Local Click ratio per job in  San Luis Obispo : $ 0.143596574755591"
"161","Manhasset","NY",62,45500,18.1049625195518,1.29537724545122,0.0715481870814324,-73.6942,40.7884,"Annual estimated Salary in  Manhasset : $ 45500","Daily estimated Click per job in  Manhasset :  18.1049625195518 clicks","Daily estimated Local Click ratio per job in  Manhasset : $ 0.0715481870814324"
"162","Norwalk","CT",137,45500,28.439425141021,3.39362637220572,0.119328233794387,-73.4215,41.1144,"Annual estimated Salary in  Norwalk : $ 45500","Daily estimated Click per job in  Norwalk :  28.439425141021 clicks","Daily estimated Local Click ratio per job in  Norwalk : $ 0.119328233794387"
"163","Plantation","FL",98,45500,24.2105717492331,1.13993888386741,0.0470843438013196,-80.2617,26.126,"Annual estimated Salary in  Plantation : $ 45500","Daily estimated Click per job in  Plantation :  24.2105717492331 clicks","Daily estimated Local Click ratio per job in  Plantation : $ 0.0470843438013196"
"164","Salem","VA",60,45400,20.174851593623,2.12270242359213,0.105215268312709,-80.0554,37.2864,"Annual estimated Salary in  Salem : $ 45400","Daily estimated Click per job in  Salem :  20.174851593623 clicks","Daily estimated Local Click ratio per job in  Salem : $ 0.105215268312709"
"165","Santa Barbara","CA",231,45400,16.7156846375639,4.38832508900821,0.262527391737617,-119.7202,34.4285,"Annual estimated Salary in  Santa Barbara : $ 45400","Daily estimated Click per job in  Santa Barbara :  16.7156846375639 clicks","Daily estimated Local Click ratio per job in  Santa Barbara : $ 0.262527391737617"
"166","Cleveland","OH",1026,45350,25.5325450258344,7.00187981447977,0.27423352460145,-81.6805,41.4766,"Annual estimated Salary in  Cleveland : $ 45350","Daily estimated Click per job in  Cleveland :  25.5325450258344 clicks","Daily estimated Local Click ratio per job in  Cleveland : $ 0.27423352460145"
"167","Augusta","ME",90,45250,18.0527615513885,3.07678587898794,0.170432976153241,-69.7319,44.3341,"Annual estimated Salary in  Augusta : $ 45250","Daily estimated Click per job in  Augusta :  18.0527615513885 clicks","Daily estimated Local Click ratio per job in  Augusta : $ 0.170432976153241"
"168","Beverly","MA",82,45200,18.5971268652576,2.14292115073416,0.115228613874624,-70.8627,42.5681,"Annual estimated Salary in  Beverly : $ 45200","Daily estimated Click per job in  Beverly :  18.5971268652576 clicks","Daily estimated Local Click ratio per job in  Beverly : $ 0.115228613874624"
"169","Wayne","PA",72,45200,22.2658385366212,1.28806767215269,0.0578495020537481,-75.3877,40.044,"Annual estimated Salary in  Wayne : $ 45200","Daily estimated Click per job in  Wayne :  22.2658385366212 clicks","Daily estimated Local Click ratio per job in  Wayne : $ 0.0578495020537481"
"170","Addison","TX",101,45100,32.3057302399618,1.12871932473314,0.0349386723763615,-96.8356,32.9587,"Annual estimated Salary in  Addison : $ 45100","Daily estimated Click per job in  Addison :  32.3057302399618 clicks","Daily estimated Local Click ratio per job in  Addison : $ 0.0349386723763615"
"171","Hoboken","NJ",66,45100,21.8093508584127,1.57589552401827,0.0722577913597272,-74.0279,40.7452,"Annual estimated Salary in  Hoboken : $ 45100","Daily estimated Click per job in  Hoboken :  21.8093508584127 clicks","Daily estimated Local Click ratio per job in  Hoboken : $ 0.0722577913597272"
"172","Hillsboro","OR",224,45050,18.7011923505303,2.81564301237077,0.150559545059752,-122.9373,45.5289,"Annual estimated Salary in  Hillsboro : $ 45050","Daily estimated Click per job in  Hillsboro :  18.7011923505303 clicks","Daily estimated Local Click ratio per job in  Hillsboro : $ 0.150559545059752"
"173","Fairfax","VA",442,45000,21.575777721514,2.38076318797345,0.110344258209497,-77.2998,38.8531,"Annual estimated Salary in  Fairfax : $ 45000","Daily estimated Click per job in  Fairfax :  21.575777721514 clicks","Daily estimated Local Click ratio per job in  Fairfax : $ 0.110344258209497"
"174","Philadelphia","PA",2445,45000,28.7606177405738,10.9528544981204,0.380828207409077,-75.134,40.0076,"Annual estimated Salary in  Philadelphia : $ 45000","Daily estimated Click per job in  Philadelphia :  28.7606177405738 clicks","Daily estimated Local Click ratio per job in  Philadelphia : $ 0.380828207409077"
"175","Queens","NY",163,44700,29.8281519445944,1.14009631815368,0.0382221573857944,-73.7976,40.7498,"Annual estimated Salary in  Queens : $ 44700","Daily estimated Click per job in  Queens :  29.8281519445944 clicks","Daily estimated Local Click ratio per job in  Queens : $ 0.0382221573857944"
"176","South Plainfield","NJ",63,44700,26.6200433752512,1.68117281933781,0.0631543981968414,-74.4151,40.5746,"Annual estimated Salary in  South Plainfield : $ 44700","Daily estimated Click per job in  South Plainfield :  26.6200433752512 clicks","Daily estimated Local Click ratio per job in  South Plainfield : $ 0.0631543981968414"
"177","Tinley Park","IL",63,44700,20.7435251970698,2.0927319915615,0.100886034156679,-87.8049,41.5671,"Annual estimated Salary in  Tinley Park : $ 44700","Daily estimated Click per job in  Tinley Park :  20.7435251970698 clicks","Daily estimated Local Click ratio per job in  Tinley Park : $ 0.100886034156679"
"178","Wilmington","MA",65,44700,21.7440731949666,1.56018134972537,0.0717520280462688,-71.1654,42.5609,"Annual estimated Salary in  Wilmington : $ 44700","Daily estimated Click per job in  Wilmington :  21.7440731949666 clicks","Daily estimated Local Click ratio per job in  Wilmington : $ 0.0717520280462688"
"179","Glens Falls","NY",95,44600,19.4479088157393,1.9779242164429,0.101703696535339,-73.6459,43.3109,"Annual estimated Salary in  Glens Falls : $ 44600","Daily estimated Click per job in  Glens Falls :  19.4479088157393 clicks","Daily estimated Local Click ratio per job in  Glens Falls : $ 0.101703696535339"
"180","Hanford","CA",69,44600,21.3266997006489,5.75089297308604,0.269656958357746,-119.6539,36.326,"Annual estimated Salary in  Hanford : $ 44600","Daily estimated Click per job in  Hanford :  21.3266997006489 clicks","Daily estimated Local Click ratio per job in  Hanford : $ 0.269656958357746"
"181","Madera","CA",52,44600,38.3939525583904,7.19458393132349,0.187388467503621,-120.0803,36.964,"Annual estimated Salary in  Madera : $ 44600","Daily estimated Click per job in  Madera :  38.3939525583904 clicks","Daily estimated Local Click ratio per job in  Madera : $ 0.187388467503621"
"182","Marinette","WI",59,44500,16.6360918828346,2.95535735507869,0.177647333033071,-87.6305,45.087,"Annual estimated Salary in  Marinette : $ 44500","Daily estimated Click per job in  Marinette :  16.6360918828346 clicks","Daily estimated Local Click ratio per job in  Marinette : $ 0.177647333033071"
"183","Oak Brook","IL",136,44450,22.1437643873165,1.05616786522278,0.0476959493765087,-87.9512,41.8373,"Annual estimated Salary in  Oak Brook : $ 44450","Daily estimated Click per job in  Oak Brook :  22.1437643873165 clicks","Daily estimated Local Click ratio per job in  Oak Brook : $ 0.0476959493765087"
"184","Sanford","NC",52,44350,24.6016089582953,6.61452961924286,0.268865732743571,-79.1773,35.4822,"Annual estimated Salary in  Sanford : $ 44350","Daily estimated Click per job in  Sanford :  24.6016089582953 clicks","Daily estimated Local Click ratio per job in  Sanford : $ 0.268865732743571"
"185","Hunt Valley","MD",61,44300,28.5079262886812,1.1239573215374,0.0394261339865907,NA,NA,"Annual estimated Salary in  Hunt Valley : $ 44300","Daily estimated Click per job in  Hunt Valley :  28.5079262886812 clicks","Daily estimated Local Click ratio per job in  Hunt Valley : $ 0.0394261339865907"
"186","San Juan","PR",73,44300,45.6976055252505,1.23454570905823,0.0270155447942688,-66.0636,18.4037,"Annual estimated Salary in  San Juan : $ 44300","Daily estimated Click per job in  San Juan :  45.6976055252505 clicks","Daily estimated Local Click ratio per job in  San Juan : $ 0.0270155447942688"
"187","Secaucus","NJ",78,44300,29.2666741534263,1.61692080596994,0.0552478493966709,-74.0662,40.7809,"Annual estimated Salary in  Secaucus : $ 44300","Daily estimated Click per job in  Secaucus :  29.2666741534263 clicks","Daily estimated Local Click ratio per job in  Secaucus : $ 0.0552478493966709"
"188","Burlington","VT",142,44250,18.455873427563,2.5901941172721,0.140345247134376,-73.2314,44.4877,"Annual estimated Salary in  Burlington : $ 44250","Daily estimated Click per job in  Burlington :  18.455873427563 clicks","Daily estimated Local Click ratio per job in  Burlington : $ 0.140345247134376"
"189","Melville","NY",142,44250,26.8625827700216,1.26587949885992,0.0471242661101313,-73.4087,40.7823,"Annual estimated Salary in  Melville : $ 44250","Daily estimated Click per job in  Melville :  26.8625827700216 clicks","Daily estimated Local Click ratio per job in  Melville : $ 0.0471242661101313"
"190","Fremont","CA",370,44050,18.5360342311142,2.91109695347213,0.157050689331682,-121.987,37.5256,"Annual estimated Salary in  Fremont : $ 44050","Daily estimated Click per job in  Fremont :  18.5360342311142 clicks","Daily estimated Local Click ratio per job in  Fremont : $ 0.157050689331682"
"191","Milwaukee","WI",909,44000,20.6313192934638,7.02559339093658,0.340530495941786,-87.9669,43.064,"Annual estimated Salary in  Milwaukee : $ 44000","Daily estimated Click per job in  Milwaukee :  20.6313192934638 clicks","Daily estimated Local Click ratio per job in  Milwaukee : $ 0.340530495941786"
"192","Monterey Park","CA",55,44000,18.8169324896615,1.13711301437842,0.0604303073842233,-118.1325,34.0497,"Annual estimated Salary in  Monterey Park : $ 44000","Daily estimated Click per job in  Monterey Park :  18.8169324896615 clicks","Daily estimated Local Click ratio per job in  Monterey Park : $ 0.0604303073842233"
"193","Berkeley","CA",174,43900,22.4751606919404,2.55222671894948,0.113557662787466,-122.276,37.8723,"Annual estimated Salary in  Berkeley : $ 43900","Daily estimated Click per job in  Berkeley :  22.4751606919404 clicks","Daily estimated Local Click ratio per job in  Berkeley : $ 0.113557662787466"
"194","Southfield","MI",234,43850,45.6114650405614,3.26271672910116,0.071532820228416,-83.2605,42.4765,"Annual estimated Salary in  Southfield : $ 43850","Daily estimated Click per job in  Southfield :  45.6114650405614 clicks","Daily estimated Local Click ratio per job in  Southfield : $ 0.071532820228416"
"195","Richmond","VA",1199,43800,27.8297778541765,8.98431906095578,0.322831145402314,-77.4755,37.5294,"Annual estimated Salary in  Richmond : $ 43800","Daily estimated Click per job in  Richmond :  27.8297778541765 clicks","Daily estimated Local Click ratio per job in  Richmond : $ 0.322831145402314"
"196","Tampa","FL",1849,43800,28.9055051842621,8.03438205490931,0.277953351920094,-82.4454,27.9937,"Annual estimated Salary in  Tampa : $ 43800","Daily estimated Click per job in  Tampa :  28.9055051842621 clicks","Daily estimated Local Click ratio per job in  Tampa : $ 0.277953351920094"
"197","Gaithersburg","MD",195,43700,21.1775826487841,3.35553748222336,0.15844761594714,-77.213,39.1347,"Annual estimated Salary in  Gaithersburg : $ 43700","Daily estimated Click per job in  Gaithersburg :  21.1775826487841 clicks","Daily estimated Local Click ratio per job in  Gaithersburg : $ 0.15844761594714"
"198","Gary","IN",77,43600,28.4151157151244,3.5783509452299,0.125931246633117,-87.3472,41.5906,"Annual estimated Salary in  Gary : $ 43600","Daily estimated Click per job in  Gary :  28.4151157151244 clicks","Daily estimated Local Click ratio per job in  Gary : $ 0.125931246633117"
"199","Covington","GA",67,43500,23.448838000104,4.82915079659816,0.205944140881383,-83.8466,33.6049,"Annual estimated Salary in  Covington : $ 43500","Daily estimated Click per job in  Covington :  23.448838000104 clicks","Daily estimated Local Click ratio per job in  Covington : $ 0.205944140881383"
"200","Hoffman Estates","IL",79,43400,20.1596618693423,1.56525650340603,0.0776429938929874,-88.1463,42.0638,"Annual estimated Salary in  Hoffman Estates : $ 43400","Daily estimated Click per job in  Hoffman Estates :  20.1596618693423 clicks","Daily estimated Local Click ratio per job in  Hoffman Estates : $ 0.0776429938929874"
"201","Marlton","NJ",59,43200,28.518537039131,1.9826245077833,0.0695205544752486,-74.9296,39.9015,"Annual estimated Salary in  Marlton : $ 43200","Daily estimated Click per job in  Marlton :  28.518537039131 clicks","Daily estimated Local Click ratio per job in  Marlton : $ 0.0695205544752486"
"202","Pittsfield","MA",61,43200,18.9859840429005,5.80510182336487,0.30575722650181,-73.2605,42.4517,"Annual estimated Salary in  Pittsfield : $ 43200","Daily estimated Click per job in  Pittsfield :  18.9859840429005 clicks","Daily estimated Local Click ratio per job in  Pittsfield : $ 0.30575722650181"
"203","Buffalo","NY",606,43150,25.8126655928947,10.7919991358535,0.418089294072139,-78.8487,42.9016,"Annual estimated Salary in  Buffalo : $ 43150","Daily estimated Click per job in  Buffalo :  25.8126655928947 clicks","Daily estimated Local Click ratio per job in  Buffalo : $ 0.418089294072139"
"204","Westlake Village","CA",68,43100,18.4962384997946,1.05644653490335,0.057116831344659,-118.8056,34.1458,"Annual estimated Salary in  Westlake Village : $ 43100","Daily estimated Click per job in  Westlake Village :  18.4962384997946 clicks","Daily estimated Local Click ratio per job in  Westlake Village : $ 0.057116831344659"
"205","Worcester","MA",342,43100,18.5680311359106,4.57545416233541,0.246415687740122,-71.8079,42.2705,"Annual estimated Salary in  Worcester : $ 43100","Daily estimated Click per job in  Worcester :  18.5680311359106 clicks","Daily estimated Local Click ratio per job in  Worcester : $ 0.246415687740122"
"206","Cupertino","CA",99,43000,17.2451789894522,1.44194243110954,0.0836142339833924,-122.0465,37.3167,"Annual estimated Salary in  Cupertino : $ 43000","Daily estimated Click per job in  Cupertino :  17.2451789894522 clicks","Daily estimated Local Click ratio per job in  Cupertino : $ 0.0836142339833924"
"207","Norfolk","VA",500,43000,26.3841014337949,4.46321914428715,0.169163204420155,-76.259,36.8945,"Annual estimated Salary in  Norfolk : $ 43000","Daily estimated Click per job in  Norfolk :  26.3841014337949 clicks","Daily estimated Local Click ratio per job in  Norfolk : $ 0.169163204420155"
"208","Springfield","MA",259,43000,22.4452285372134,5.01775146903589,0.223555374395793,-72.5395,42.1155,"Annual estimated Salary in  Springfield : $ 43000","Daily estimated Click per job in  Springfield :  22.4452285372134 clicks","Daily estimated Local Click ratio per job in  Springfield : $ 0.223555374395793"
"209","Harrisburg","PA",430,42900,22.9399820943342,4.62896248060155,0.201785793099849,-76.8843,40.2752,"Annual estimated Salary in  Harrisburg : $ 42900","Daily estimated Click per job in  Harrisburg :  22.9399820943342 clicks","Daily estimated Local Click ratio per job in  Harrisburg : $ 0.201785793099849"
"210","Lisle","IL",65,42900,23.7848195072737,1.40805952853781,0.0591999248977781,-88.0881,41.7925,"Annual estimated Salary in  Lisle : $ 42900","Daily estimated Click per job in  Lisle :  23.7848195072737 clicks","Daily estimated Local Click ratio per job in  Lisle : $ 0.0591999248977781"
"211","Bothell","WA",126,42800,15.8996141229629,2.02560454744494,0.127399604278413,-122.2039,47.774,"Annual estimated Salary in  Bothell : $ 42800","Daily estimated Click per job in  Bothell :  15.8996141229629 clicks","Daily estimated Local Click ratio per job in  Bothell : $ 0.127399604278413"
"212","Fort Dodge","IA",57,42800,16.6741834314924,4.13692843076318,0.248103809566458,-94.1751,42.5098,"Annual estimated Salary in  Fort Dodge : $ 42800","Daily estimated Click per job in  Fort Dodge :  16.6741834314924 clicks","Daily estimated Local Click ratio per job in  Fort Dodge : $ 0.248103809566458"
"213","Overland Park","KS",517,42800,21.4307964241576,3.17553850554618,0.148176411305302,-94.6871,38.8871,"Annual estimated Salary in  Overland Park : $ 42800","Daily estimated Click per job in  Overland Park :  21.4307964241576 clicks","Daily estimated Local Click ratio per job in  Overland Park : $ 0.148176411305302"
"214","Coral Gables","FL",126,42750,26.8776243832349,1.60327843865932,0.0596510471237693,-80.2715,25.7037,"Annual estimated Salary in  Coral Gables : $ 42750","Daily estimated Click per job in  Coral Gables :  26.8776243832349 clicks","Daily estimated Local Click ratio per job in  Coral Gables : $ 0.0596510471237693"
"215","Dover","DE",110,42750,21.936088529792,6.78305170093822,0.309218833235742,-75.5204,39.16,"Annual estimated Salary in  Dover : $ 42750","Daily estimated Click per job in  Dover :  21.936088529792 clicks","Daily estimated Local Click ratio per job in  Dover : $ 0.309218833235742"
"216","Allentown","PA",312,42700,21.4846991912547,4.4860336428023,0.208801324275852,-75.4756,40.5962,"Annual estimated Salary in  Allentown : $ 42700","Daily estimated Click per job in  Allentown :  21.4846991912547 clicks","Daily estimated Local Click ratio per job in  Allentown : $ 0.208801324275852"
"217","Silver Spring","MD",261,42700,22.5920864901995,3.27621731045598,0.145016145891492,-77.0207,39.0028,"Annual estimated Salary in  Silver Spring : $ 42700","Daily estimated Click per job in  Silver Spring :  22.5920864901995 clicks","Daily estimated Local Click ratio per job in  Silver Spring : $ 0.145016145891492"
"218","Chapel Hill","NC",193,42600,25.9675009557626,2.83114872749528,0.109026614933733,-79.0387,35.9271,"Annual estimated Salary in  Chapel Hill : $ 42600","Daily estimated Click per job in  Chapel Hill :  25.9675009557626 clicks","Daily estimated Local Click ratio per job in  Chapel Hill : $ 0.109026614933733"
"219","Englewood","CO",334,42600,18.307042286881,1.52831004644812,0.0834820842437956,-104.9942,39.6469,"Annual estimated Salary in  Englewood : $ 42600","Daily estimated Click per job in  Englewood :  18.307042286881 clicks","Daily estimated Local Click ratio per job in  Englewood : $ 0.0834820842437956"
"220","Monterey","CA",103,42600,19.8727707427689,2.38261985214577,0.119893691875489,-121.8807,36.5922,"Annual estimated Salary in  Monterey : $ 42600","Daily estimated Click per job in  Monterey :  19.8727707427689 clicks","Daily estimated Local Click ratio per job in  Monterey : $ 0.119893691875489"
"221","Houston","TX",4014,42550,35.5587155314037,16.1842583317411,0.45514181516056,-95.3936,29.7871,"Annual estimated Salary in  Houston : $ 42550","Daily estimated Click per job in  Houston :  35.5587155314037 clicks","Daily estimated Local Click ratio per job in  Houston : $ 0.45514181516056"
"222","Woodland Hills","CA",156,42550,24.0394093665288,2.30505588267297,0.0958865439465584,NA,NA,"Annual estimated Salary in  Woodland Hills : $ 42550","Daily estimated Click per job in  Woodland Hills :  24.0394093665288 clicks","Daily estimated Local Click ratio per job in  Woodland Hills : $ 0.0958865439465584"
"223","Boulder","CO",351,42500,20.225491194243,2.77653710788121,0.137279094050953,-105.2514,40.0274,"Annual estimated Salary in  Boulder : $ 42500","Daily estimated Click per job in  Boulder :  20.225491194243 clicks","Daily estimated Local Click ratio per job in  Boulder : $ 0.137279094050953"
"224","Columbia","SC",730,42500,33.4585193731917,8.16759425195052,0.244111048694364,-80.9043,34.0366,"Annual estimated Salary in  Columbia : $ 42500","Daily estimated Click per job in  Columbia :  33.4585193731917 clicks","Daily estimated Local Click ratio per job in  Columbia : $ 0.244111048694364"
"225","White Plains","NY",171,42500,24.3118873452151,2.29515615110131,0.0944046884765211,-73.7548,41.022,"Annual estimated Salary in  White Plains : $ 42500","Daily estimated Click per job in  White Plains :  24.3118873452151 clicks","Daily estimated Local Click ratio per job in  White Plains : $ 0.0944046884765211"
"226","Augusta","GA",355,42300,23.7224363030559,5.55735673463438,0.234265851265812,-82.0708,33.3644,"Annual estimated Salary in  Augusta : $ 42300","Daily estimated Click per job in  Augusta :  23.7224363030559 clicks","Daily estimated Local Click ratio per job in  Augusta : $ 0.234265851265812"
"227","Beckley","WV",63,42300,19.2916025411527,5.77047715364307,0.299118600506803,-81.1841,37.7878,"Annual estimated Salary in  Beckley : $ 42300","Daily estimated Click per job in  Beckley :  19.2916025411527 clicks","Daily estimated Local Click ratio per job in  Beckley : $ 0.299118600506803"
"228","Livermore","CA",272,42300,19.9748052201727,1.85442378964897,0.0928381413089413,-121.7607,37.6863,"Annual estimated Salary in  Livermore : $ 42300","Daily estimated Click per job in  Livermore :  19.9748052201727 clicks","Daily estimated Local Click ratio per job in  Livermore : $ 0.0928381413089413"
"229","Orange","CA",276,42300,23.2394745753465,2.01545416098218,0.0867254616470662,-117.8219,33.8038,"Annual estimated Salary in  Orange : $ 42300","Daily estimated Click per job in  Orange :  23.2394745753465 clicks","Daily estimated Local Click ratio per job in  Orange : $ 0.0867254616470662"
"230","Warren","MI",191,42300,29.1852345011877,2.9811401712534,0.102145493164774,-83.027,42.4934,"Annual estimated Salary in  Warren : $ 42300","Daily estimated Click per job in  Warren :  29.1852345011877 clicks","Daily estimated Local Click ratio per job in  Warren : $ 0.102145493164774"
"231","Modesto","CA",250,42250,28.1324240542151,7.60648955929372,0.270381590460706,-121.003,37.6371,"Annual estimated Salary in  Modesto : $ 42250","Daily estimated Click per job in  Modesto :  28.1324240542151 clicks","Daily estimated Local Click ratio per job in  Modesto : $ 0.270381590460706"
"232","Ann Arbor","MI",524,42150,21.8445156514237,3.22635642307513,0.147696404651794,-83.7312,42.2757,"Annual estimated Salary in  Ann Arbor : $ 42150","Daily estimated Click per job in  Ann Arbor :  21.8445156514237 clicks","Daily estimated Local Click ratio per job in  Ann Arbor : $ 0.147696404651794"
"233","Troy","MI",312,42150,26.3206001962431,2.11688058201429,0.0804267595051439,-83.1458,42.5817,"Annual estimated Salary in  Troy : $ 42150","Daily estimated Click per job in  Troy :  26.3206001962431 clicks","Daily estimated Local Click ratio per job in  Troy : $ 0.0804267595051439"
"234","Petersburg","VA",74,42100,23.9365809525713,2.95939433576755,0.123634797368571,-77.3914,37.2042,"Annual estimated Salary in  Petersburg : $ 42100","Daily estimated Click per job in  Petersburg :  23.9365809525713 clicks","Daily estimated Local Click ratio per job in  Petersburg : $ 0.123634797368571"
"235","Roswell","NM",56,42100,16.7946360399442,4.77536337127874,0.284338604297293,-104.5294,33.3729,"Annual estimated Salary in  Roswell : $ 42100","Daily estimated Click per job in  Roswell :  16.7946360399442 clicks","Daily estimated Local Click ratio per job in  Roswell : $ 0.284338604297293"
"236","San Bernardino","CA",256,42100,31.4205175359475,4.27112314654757,0.135934207374562,-117.2936,34.1412,"Annual estimated Salary in  San Bernardino : $ 42100","Daily estimated Click per job in  San Bernardino :  31.4205175359475 clicks","Daily estimated Local Click ratio per job in  San Bernardino : $ 0.135934207374562"
"237","Thousand Oaks","CA",187,42100,15.9040644390917,2.10569697159345,0.132399927053723,-118.8755,34.1914,"Annual estimated Salary in  Thousand Oaks : $ 42100","Daily estimated Click per job in  Thousand Oaks :  15.9040644390917 clicks","Daily estimated Local Click ratio per job in  Thousand Oaks : $ 0.132399927053723"
"238","New Orleans","LA",666,42050,29.9760818195391,6.86393594438491,0.228980424650123,-89.9288,30.0687,"Annual estimated Salary in  New Orleans : $ 42050","Daily estimated Click per job in  New Orleans :  29.9760818195391 clicks","Daily estimated Local Click ratio per job in  New Orleans : $ 0.228980424650123"
"239","Utica","NY",78,42050,21.6518325861602,5.87653606121556,0.271410562493071,-75.226,43.0961,"Annual estimated Salary in  Utica : $ 42050","Daily estimated Click per job in  Utica :  21.6518325861602 clicks","Daily estimated Local Click ratio per job in  Utica : $ 0.271410562493071"
"240","Lowell","MA",127,42000,22.2097807666107,4.52940012532798,0.20393718303322,-71.3217,42.6389,"Annual estimated Salary in  Lowell : $ 42000","Daily estimated Click per job in  Lowell :  22.2097807666107 clicks","Daily estimated Local Click ratio per job in  Lowell : $ 0.20393718303322"
"241","Urbana","IL",63,42000,15.0703613527073,2.09011294481451,0.138690300510879,-88.1972,40.1106,"Annual estimated Salary in  Urbana : $ 42000","Daily estimated Click per job in  Urbana :  15.0703613527073 clicks","Daily estimated Local Click ratio per job in  Urbana : $ 0.138690300510879"
"242","Paterson","NJ",66,41950,29.5314662953515,5.85233235486174,0.198172765833268,-74.1624,40.9147,"Annual estimated Salary in  Paterson : $ 41950","Daily estimated Click per job in  Paterson :  29.5314662953515 clicks","Daily estimated Local Click ratio per job in  Paterson : $ 0.198172765833268"
"243","Denver","CO",2249,41700,23.0184425239042,7.49879331480759,0.32577327102041,-104.8759,39.7621,"Annual estimated Salary in  Denver : $ 41700","Daily estimated Click per job in  Denver :  23.0184425239042 clicks","Daily estimated Local Click ratio per job in  Denver : $ 0.32577327102041"
"244","Holyoke","MA",72,41650,18.3130826337718,2.12683034062526,0.116137210930458,-72.6411,42.2126,"Annual estimated Salary in  Holyoke : $ 41650","Daily estimated Click per job in  Holyoke :  18.3130826337718 clicks","Daily estimated Local Click ratio per job in  Holyoke : $ 0.116137210930458"
"245","Marion","IN",56,41650,14.0098144825833,3.34549223460907,0.238796326587202,NA,NA,"Annual estimated Salary in  Marion : $ 41650","Daily estimated Click per job in  Marion :  14.0098144825833 clicks","Daily estimated Local Click ratio per job in  Marion : $ 0.238796326587202"
"246","Downey","CA",99,41600,25.1186060667274,2.47618081705012,0.0985795473869913,-118.1312,33.9379,"Annual estimated Salary in  Downey : $ 41600","Daily estimated Click per job in  Downey :  25.1186060667274 clicks","Daily estimated Local Click ratio per job in  Downey : $ 0.0985795473869913"
"247","Sacramento","CA",1045,41600,26.147858923068,8.05450954735509,0.308037058447232,-121.4683,38.5666,"Annual estimated Salary in  Sacramento : $ 41600","Daily estimated Click per job in  Sacramento :  26.147858923068 clicks","Daily estimated Local Click ratio per job in  Sacramento : $ 0.308037058447232"
"248","Billerica","MA",64,41500,20.043097517927,2.02288713001551,0.100926871617832,NA,NA,"Annual estimated Salary in  Billerica : $ 41500","Daily estimated Click per job in  Billerica :  20.043097517927 clicks","Daily estimated Local Click ratio per job in  Billerica : $ 0.100926871617832"
"249","Boca Raton","FL",441,41500,27.8641138719892,3.78098796865064,0.135693817001356,-80.1078,26.3749,"Annual estimated Salary in  Boca Raton : $ 41500","Daily estimated Click per job in  Boca Raton :  27.8641138719892 clicks","Daily estimated Local Click ratio per job in  Boca Raton : $ 0.135693817001356"
"250","Rancho Cordova","CA",131,41500,22.8507902126672,2.06280917784328,0.0902729909401456,-121.2521,38.5739,"Annual estimated Salary in  Rancho Cordova : $ 41500","Daily estimated Click per job in  Rancho Cordova :  22.8507902126672 clicks","Daily estimated Local Click ratio per job in  Rancho Cordova : $ 0.0902729909401456"
"251","Rocky Mount","NC",70,41500,26.2483819990549,5.17220597230052,0.197048563697631,-77.8047,35.9675,"Annual estimated Salary in  Rocky Mount : $ 41500","Daily estimated Click per job in  Rocky Mount :  26.2483819990549 clicks","Daily estimated Local Click ratio per job in  Rocky Mount : $ 0.197048563697631"
"252","West Chester","PA",148,41500,23.6276609606655,2.80946424823193,0.11890572887892,-75.6058,39.9601,"Annual estimated Salary in  West Chester : $ 41500","Daily estimated Click per job in  West Chester :  23.6276609606655 clicks","Daily estimated Local Click ratio per job in  West Chester : $ 0.11890572887892"
"253","Birmingham","AL",733,41400,29.8663095457074,8.30003294289791,0.277906211686299,NA,NA,"Annual estimated Salary in  Birmingham : $ 41400","Daily estimated Click per job in  Birmingham :  29.8663095457074 clicks","Daily estimated Local Click ratio per job in  Birmingham : $ 0.277906211686299"
"254","College Park","MD",72,41400,25.6515362691805,1.65676358257854,0.0645873044480806,-76.9337,38.9964,"Annual estimated Salary in  College Park : $ 41400","Daily estimated Click per job in  College Park :  25.6515362691805 clicks","Daily estimated Local Click ratio per job in  College Park : $ 0.0645873044480806"
"255","Kirkland","WA",153,41400,15.377335868861,2.06412102417177,0.13423138063542,-122.1982,47.6996,"Annual estimated Salary in  Kirkland : $ 41400","Daily estimated Click per job in  Kirkland :  15.377335868861 clicks","Daily estimated Local Click ratio per job in  Kirkland : $ 0.13423138063542"
"256","Norwalk","CA",56,41400,26.9694722461913,3.58410373708887,0.132894841410737,-118.0829,33.9069,"Annual estimated Salary in  Norwalk : $ 41400","Daily estimated Click per job in  Norwalk :  26.9694722461913 clicks","Daily estimated Local Click ratio per job in  Norwalk : $ 0.132894841410737"
"257","Vineland","NJ",71,41400,22.8584399809711,4.69880941540646,0.205561246494427,-74.9981,39.4652,"Annual estimated Salary in  Vineland : $ 41400","Daily estimated Click per job in  Vineland :  22.8584399809711 clicks","Daily estimated Local Click ratio per job in  Vineland : $ 0.205561246494427"
"258","Melbourne","FL",236,41350,27.1021508319008,5.67890384221095,0.209537017096317,-80.653,28.1152,"Annual estimated Salary in  Melbourne : $ 41350","Daily estimated Click per job in  Melbourne :  27.1021508319008 clicks","Daily estimated Local Click ratio per job in  Melbourne : $ 0.209537017096317"
"259","Bowling Green","KY",195,41300,25.0412643861742,6.83443300670831,0.272926833937417,-86.4371,36.9725,"Annual estimated Salary in  Bowling Green : $ 41300","Daily estimated Click per job in  Bowling Green :  25.0412643861742 clicks","Daily estimated Local Click ratio per job in  Bowling Green : $ 0.272926833937417"
"260","Northampton","MA",59,41300,18.1508614031733,2.08117169604224,0.114659665445872,-72.6745,42.3266,"Annual estimated Salary in  Northampton : $ 41300","Daily estimated Click per job in  Northampton :  18.1508614031733 clicks","Daily estimated Local Click ratio per job in  Northampton : $ 0.114659665445872"
"261","Salem","MA",60,41300,21.990435451219,3.45811029163913,0.157255198484368,-70.9021,42.513,"Annual estimated Salary in  Salem : $ 41300","Daily estimated Click per job in  Salem :  21.990435451219 clicks","Daily estimated Local Click ratio per job in  Salem : $ 0.157255198484368"
"262","Spokane","WA",500,41300,22.3016191571637,7.89143771411952,0.353850438324997,-117.433,47.6671,"Annual estimated Salary in  Spokane : $ 41300","Daily estimated Click per job in  Spokane :  22.3016191571637 clicks","Daily estimated Local Click ratio per job in  Spokane : $ 0.353850438324997"
"263","Jeffersonville","IN",126,41250,21.7504915311437,3.39373164243341,0.156030112587297,-85.7026,38.3377,"Annual estimated Salary in  Jeffersonville : $ 41250","Daily estimated Click per job in  Jeffersonville :  21.7504915311437 clicks","Daily estimated Local Click ratio per job in  Jeffersonville : $ 0.156030112587297"
"264","Aiken","SC",89,41200,23.436115603444,4.78312530100012,0.204092068068534,-81.7271,33.5303,"Annual estimated Salary in  Aiken : $ 41200","Daily estimated Click per job in  Aiken :  23.436115603444 clicks","Daily estimated Local Click ratio per job in  Aiken : $ 0.204092068068534"
"265","Germantown","MD",83,41200,23.9506087401622,3.16462625064643,0.132131349352292,-77.2643,39.1755,"Annual estimated Salary in  Germantown : $ 41200","Daily estimated Click per job in  Germantown :  23.9506087401622 clicks","Daily estimated Local Click ratio per job in  Germantown : $ 0.132131349352292"
"266","Novato","CA",66,41200,11.6079571620467,1.97190977206072,0.169875693417277,-122.5576,38.092,"Annual estimated Salary in  Novato : $ 41200","Daily estimated Click per job in  Novato :  11.6079571620467 clicks","Daily estimated Local Click ratio per job in  Novato : $ 0.169875693417277"
"267","Tallahassee","FL",359,41200,31.1101650124549,11.7818609054767,0.378714188779128,-84.2527,30.4549,"Annual estimated Salary in  Tallahassee : $ 41200","Daily estimated Click per job in  Tallahassee :  31.1101650124549 clicks","Daily estimated Local Click ratio per job in  Tallahassee : $ 0.378714188779128"
"268","Austin","TX",2700,41150,23.2137416587099,6.9671120502453,0.300128783746984,-97.7545,30.3038,"Annual estimated Salary in  Austin : $ 41150","Daily estimated Click per job in  Austin :  23.2137416587099 clicks","Daily estimated Local Click ratio per job in  Austin : $ 0.300128783746984"
"269","Merrimack","NH",57,41100,24.3308797151815,2.48904897226359,0.102299999071161,NA,NA,"Annual estimated Salary in  Merrimack : $ 41100","Daily estimated Click per job in  Merrimack :  24.3308797151815 clicks","Daily estimated Local Click ratio per job in  Merrimack : $ 0.102299999071161"
"270","Miami","FL",1622,41100,29.0909647103645,10.5345450276481,0.362124292973166,-80.2102,25.784,"Annual estimated Salary in  Miami : $ 41100","Daily estimated Click per job in  Miami :  29.0909647103645 clicks","Daily estimated Local Click ratio per job in  Miami : $ 0.362124292973166"
"271","Neptune City","NJ",63,41100,13.5667221291089,0.916411715248188,0.0675484989319511,-74.0335,40.2002,"Annual estimated Salary in  Neptune City : $ 41100","Daily estimated Click per job in  Neptune City :  13.5667221291089 clicks","Daily estimated Local Click ratio per job in  Neptune City : $ 0.0675484989319511"
"272","Danbury","CT",138,41050,20.3254138266736,3.90045697420342,0.191900494989418,-73.471,41.4016,"Annual estimated Salary in  Danbury : $ 41050","Daily estimated Click per job in  Danbury :  20.3254138266736 clicks","Daily estimated Local Click ratio per job in  Danbury : $ 0.191900494989418"
"273","Edison","NJ",260,41050,22.2895277925223,2.18384789267654,0.0979764090565063,NA,NA,"Annual estimated Salary in  Edison : $ 41050","Daily estimated Click per job in  Edison :  22.2895277925223 clicks","Daily estimated Local Click ratio per job in  Edison : $ 0.0979764090565063"
"274","Hanover","MD",90,41050,26.2753186230262,1.13541374178318,0.0432121778644454,NA,NA,"Annual estimated Salary in  Hanover : $ 41050","Daily estimated Click per job in  Hanover :  26.2753186230262 clicks","Daily estimated Local Click ratio per job in  Hanover : $ 0.0432121778644454"
"275","Jackson","MS",244,41050,33.7988885295396,8.17921457453269,0.241996554631795,-90.2124,32.3163,"Annual estimated Salary in  Jackson : $ 41050","Daily estimated Click per job in  Jackson :  33.7988885295396 clicks","Daily estimated Local Click ratio per job in  Jackson : $ 0.241996554631795"
"276","Tacoma","WA",466,41000,22.7663596276279,5.35971472769828,0.23542256273568,-122.4531,47.2431,"Annual estimated Salary in  Tacoma : $ 41000","Daily estimated Click per job in  Tacoma :  22.7663596276279 clicks","Daily estimated Local Click ratio per job in  Tacoma : $ 0.23542256273568"
"277","Bakersfield","CA",414,40950,26.6855671980218,12.3015640350519,0.460981921192359,-119.0354,35.3528,"Annual estimated Salary in  Bakersfield : $ 40950","Daily estimated Click per job in  Bakersfield :  26.6855671980218 clicks","Daily estimated Local Click ratio per job in  Bakersfield : $ 0.460981921192359"
"278","Hawthorne","CA",86,40950,17.773444823871,2.01821533158068,0.11355228834818,-118.3476,33.9147,"Annual estimated Salary in  Hawthorne : $ 40950","Daily estimated Click per job in  Hawthorne :  17.773444823871 clicks","Daily estimated Local Click ratio per job in  Hawthorne : $ 0.11355228834818"
"279","Oxnard","CA",158,40950,21.986540167413,7.56199162306509,0.343937316443856,-119.1821,34.1961,"Annual estimated Salary in  Oxnard : $ 40950","Daily estimated Click per job in  Oxnard :  21.986540167413 clicks","Daily estimated Local Click ratio per job in  Oxnard : $ 0.343937316443856"
"280","Long Beach","CA",368,40900,30.1163817233103,6.75373582178453,0.224254556335268,-118.161,33.8059,"Annual estimated Salary in  Long Beach : $ 40900","Daily estimated Click per job in  Long Beach :  30.1163817233103 clicks","Daily estimated Local Click ratio per job in  Long Beach : $ 0.224254556335268"
"281","Palm Springs","CA",108,40900,22.6752011859257,2.52264596564702,0.111251315697821,-116.538,33.8012,"Annual estimated Salary in  Palm Springs : $ 40900","Daily estimated Click per job in  Palm Springs :  22.6752011859257 clicks","Daily estimated Local Click ratio per job in  Palm Springs : $ 0.111251315697821"
"282","Columbus","OH",1996,40800,22.6019277981037,6.18561487170339,0.273676428265662,-82.9852,39.9859,"Annual estimated Salary in  Columbus : $ 40800","Daily estimated Click per job in  Columbus :  22.6019277981037 clicks","Daily estimated Local Click ratio per job in  Columbus : $ 0.273676428265662"
"283","Saint Petersburg","FL",479,40800,24.4439723877277,5.39079264096504,0.220536685095895,-82.6652,27.7931,"Annual estimated Salary in  Saint Petersburg : $ 40800","Daily estimated Click per job in  Saint Petersburg :  24.4439723877277 clicks","Daily estimated Local Click ratio per job in  Saint Petersburg : $ 0.220536685095895"
"284","Minnetonka","MN",156,40750,17.793241930235,1.28429577003701,0.0721788516714701,-93.4601,44.9324,"Annual estimated Salary in  Minnetonka : $ 40750","Daily estimated Click per job in  Minnetonka :  17.793241930235 clicks","Daily estimated Local Click ratio per job in  Minnetonka : $ 0.0721788516714701"
"285","Culver City","CA",164,40650,25.6707886620272,1.56805570336938,0.0610832695486636,-118.3968,34.0058,"Annual estimated Salary in  Culver City : $ 40650","Daily estimated Click per job in  Culver City :  25.6707886620272 clicks","Daily estimated Local Click ratio per job in  Culver City : $ 0.0610832695486636"
"286","Sebring","FL",56,40650,17.4071659874518,3.04956524845845,0.175190220548065,-81.453,27.4771,"Annual estimated Salary in  Sebring : $ 40650","Daily estimated Click per job in  Sebring :  17.4071659874518 clicks","Daily estimated Local Click ratio per job in  Sebring : $ 0.175190220548065"
"287","Lansing","MI",400,40600,21.0169292299501,4.93014917715711,0.234579900955817,-84.5598,42.7142,"Annual estimated Salary in  Lansing : $ 40600","Daily estimated Click per job in  Lansing :  21.0169292299501 clicks","Daily estimated Local Click ratio per job in  Lansing : $ 0.234579900955817"
"288","New Bedford","MA",69,40600,19.7564936908023,4.61208581928587,0.233446576678384,-70.9428,41.6697,"Annual estimated Salary in  New Bedford : $ 40600","Daily estimated Click per job in  New Bedford :  19.7564936908023 clicks","Daily estimated Local Click ratio per job in  New Bedford : $ 0.233446576678384"
"289","Woburn","MA",130,40550,20.2335736081719,1.79974677996653,0.0889485374565593,-71.1543,42.4868,"Annual estimated Salary in  Woburn : $ 40550","Daily estimated Click per job in  Woburn :  20.2335736081719 clicks","Daily estimated Local Click ratio per job in  Woburn : $ 0.0889485374565593"
"290","Raleigh-Durham","NC",76,40500,33.0715796876135,1.30240306748911,0.0393813382908017,NA,NA,"Annual estimated Salary in  Raleigh-Durham : $ 40500","Daily estimated Click per job in  Raleigh-Durham :  33.0715796876135 clicks","Daily estimated Local Click ratio per job in  Raleigh-Durham : $ 0.0393813382908017"
"291","Walnut Creek","CA",237,40500,17.8539358084993,1.80214064761743,0.100938004199585,-122.0398,37.9025,"Annual estimated Salary in  Walnut Creek : $ 40500","Daily estimated Click per job in  Walnut Creek :  17.8539358084993 clicks","Daily estimated Local Click ratio per job in  Walnut Creek : $ 0.100938004199585"
"292","Auburn","AL",95,40400,23.5917022468351,3.97841386004107,0.168636150898132,-85.4897,32.6084,"Annual estimated Salary in  Auburn : $ 40400","Daily estimated Click per job in  Auburn :  23.5917022468351 clicks","Daily estimated Local Click ratio per job in  Auburn : $ 0.168636150898132"
"293","Concord","CA",226,40300,18.8272839895033,2.12763778132302,0.11300821629446,-122.0016,37.9722,"Annual estimated Salary in  Concord : $ 40300","Daily estimated Click per job in  Concord :  18.8272839895033 clicks","Daily estimated Local Click ratio per job in  Concord : $ 0.11300821629446"
"294","Marion","OH",60,40300,14.1115021314639,3.52560246638292,0.24983892101196,-83.1237,40.5933,"Annual estimated Salary in  Marion : $ 40300","Daily estimated Click per job in  Marion :  14.1115021314639 clicks","Daily estimated Local Click ratio per job in  Marion : $ 0.24983892101196"
"295","Pawtucket","RI",51,40300,16.5216788332268,2.68926663852008,0.162771995852606,-71.3744,41.8743,"Annual estimated Salary in  Pawtucket : $ 40300","Daily estimated Click per job in  Pawtucket :  16.5216788332268 clicks","Daily estimated Local Click ratio per job in  Pawtucket : $ 0.162771995852606"
"296","Phoenix","AZ",2647,40300,25.0853195413161,7.0079767878286,0.279365657522771,-112.0891,33.5722,"Annual estimated Salary in  Phoenix : $ 40300","Daily estimated Click per job in  Phoenix :  25.0853195413161 clicks","Daily estimated Local Click ratio per job in  Phoenix : $ 0.279365657522771"
"297","Gardena","CA",100,40250,28.2905766929932,2.07421680990506,0.0733182936641509,-118.3073,33.8944,"Annual estimated Salary in  Gardena : $ 40250","Daily estimated Click per job in  Gardena :  28.2905766929932 clicks","Daily estimated Local Click ratio per job in  Gardena : $ 0.0733182936641509"
"298","Scranton","PA",150,40250,19.6480548456851,4.26427981350463,0.217033179467183,-75.6649,41.4043,"Annual estimated Salary in  Scranton : $ 40250","Daily estimated Click per job in  Scranton :  19.6480548456851 clicks","Daily estimated Local Click ratio per job in  Scranton : $ 0.217033179467183"
"299","Anchorage","AK",319,40200,20.3568539445106,6.7052420991494,0.329384988339886,-149.1091,61.1508,"Annual estimated Salary in  Anchorage : $ 40200","Daily estimated Click per job in  Anchorage :  20.3568539445106 clicks","Daily estimated Local Click ratio per job in  Anchorage : $ 0.329384988339886"
"300","Portland","OR",1569,40100,21.523855117598,7.29701695553582,0.339019981117125,-122.65,45.5372,"Annual estimated Salary in  Portland : $ 40100","Daily estimated Click per job in  Portland :  21.523855117598 clicks","Daily estimated Local Click ratio per job in  Portland : $ 0.339019981117125"
"301","Newport Beach","CA",226,40050,21.4128862957004,1.86847585727451,0.0872594115278,-117.8669,33.6151,"Annual estimated Salary in  Newport Beach : $ 40050","Daily estimated Click per job in  Newport Beach :  21.4128862957004 clicks","Daily estimated Local Click ratio per job in  Newport Beach : $ 0.0872594115278"
"302","Florence","SC",137,40000,33.422127074674,8.37418322456224,0.250558057117432,-79.785,34.1782,"Annual estimated Salary in  Florence : $ 40000","Daily estimated Click per job in  Florence :  33.422127074674 clicks","Daily estimated Local Click ratio per job in  Florence : $ 0.250558057117432"
"303","Manassas","VA",223,40000,22.8083577530459,3.60907009866386,0.158234544448159,-77.484,38.748,"Annual estimated Salary in  Manassas : $ 40000","Daily estimated Click per job in  Manassas :  22.8083577530459 clicks","Daily estimated Local Click ratio per job in  Manassas : $ 0.158234544448159"
"304","Palmdale","CA",130,40000,19.6139876680359,6.91787792846337,0.35270124798422,-118.1058,34.5945,"Annual estimated Salary in  Palmdale : $ 40000","Daily estimated Click per job in  Palmdale :  19.6139876680359 clicks","Daily estimated Local Click ratio per job in  Palmdale : $ 0.35270124798422"
"305","Suffolk","VA",104,40000,36.3889563724501,5.56229072922294,0.152856560993162,-76.6398,36.6953,"Annual estimated Salary in  Suffolk : $ 40000","Daily estimated Click per job in  Suffolk :  36.3889563724501 clicks","Daily estimated Local Click ratio per job in  Suffolk : $ 0.152856560993162"
"306","Palm Beach Gardens","FL",114,39950,30.6628114472245,3.34357035866736,0.109043176436126,-80.1654,26.8489,"Annual estimated Salary in  Palm Beach Gardens : $ 39950","Daily estimated Click per job in  Palm Beach Gardens :  30.6628114472245 clicks","Daily estimated Local Click ratio per job in  Palm Beach Gardens : $ 0.109043176436126"
"307","Shreveport","LA",226,39900,32.9784375902334,8.92816465854399,0.270727339162607,-93.7959,32.4659,"Annual estimated Salary in  Shreveport : $ 39900","Daily estimated Click per job in  Shreveport :  32.9784375902334 clicks","Daily estimated Local Click ratio per job in  Shreveport : $ 0.270727339162607"
"308","Syracuse","NY",481,39900,23.7752864583719,6.10856213659916,0.256929065704198,-76.1438,43.0409,"Annual estimated Salary in  Syracuse : $ 39900","Daily estimated Click per job in  Syracuse :  23.7752864583719 clicks","Daily estimated Local Click ratio per job in  Syracuse : $ 0.256929065704198"
"309","Las Cruces","NM",149,39800,21.4026462506783,5.85980847785432,0.273788970261965,-106.7893,32.3265,"Annual estimated Salary in  Las Cruces : $ 39800","Daily estimated Click per job in  Las Cruces :  21.4026462506783 clicks","Daily estimated Local Click ratio per job in  Las Cruces : $ 0.273788970261965"
"310","Stanford","CA",52,39800,19.3943591645933,1.37119681213009,0.0707008053472255,-122.1674,37.4252,"Annual estimated Salary in  Stanford : $ 39800","Daily estimated Click per job in  Stanford :  19.3943591645933 clicks","Daily estimated Local Click ratio per job in  Stanford : $ 0.0707008053472255"
"311","Waukesha","WI",179,39800,17.3331892749694,2.77808245166951,0.160275319654029,-88.2462,43.0088,"Annual estimated Salary in  Waukesha : $ 39800","Daily estimated Click per job in  Waukesha :  17.3331892749694 clicks","Daily estimated Local Click ratio per job in  Waukesha : $ 0.160275319654029"
"312","Richardson","TX",294,39750,24.0879449046351,1.95663957283592,0.0812289956898487,-96.7092,32.9717,"Annual estimated Salary in  Richardson : $ 39750","Daily estimated Click per job in  Richardson :  24.0879449046351 clicks","Daily estimated Local Click ratio per job in  Richardson : $ 0.0812289956898487"
"313","Biloxi","MS",81,39700,21.5524537894739,3.15226827449961,0.146260296172827,-88.9542,30.4393,"Annual estimated Salary in  Biloxi : $ 39700","Daily estimated Click per job in  Biloxi :  21.5524537894739 clicks","Daily estimated Local Click ratio per job in  Biloxi : $ 0.146260296172827"
"314","Fort Walton Beach","FL",77,39700,16.6370427966598,2.45599319077913,0.147621979506612,-86.6192,30.4244,"Annual estimated Salary in  Fort Walton Beach : $ 39700","Daily estimated Click per job in  Fort Walton Beach :  16.6370427966598 clicks","Daily estimated Local Click ratio per job in  Fort Walton Beach : $ 0.147621979506612"
"315","Hampton","VA",181,39700,25.1323783736559,4.61639387674582,0.183683128119096,-76.3629,37.0551,"Annual estimated Salary in  Hampton : $ 39700","Daily estimated Click per job in  Hampton :  25.1323783736559 clicks","Daily estimated Local Click ratio per job in  Hampton : $ 0.183683128119096"
"316","Martinsburg","WV",86,39700,25.7324737572461,4.98372524569391,0.193674548848632,-77.9779,39.458,"Annual estimated Salary in  Martinsburg : $ 39700","Daily estimated Click per job in  Martinsburg :  25.7324737572461 clicks","Daily estimated Local Click ratio per job in  Martinsburg : $ 0.193674548848632"
"317","Westborough","MA",109,39700,18.06105821053,1.50791574617064,0.0834898890526522,-71.6168,42.2672,"Annual estimated Salary in  Westborough : $ 39700","Daily estimated Click per job in  Westborough :  18.06105821053 clicks","Daily estimated Local Click ratio per job in  Westborough : $ 0.0834898890526522"
"318","Billings","MT",202,39650,18.3518803314807,7.79515179769434,0.424760387322415,-108.5498,45.7892,"Annual estimated Salary in  Billings : $ 39650","Daily estimated Click per job in  Billings :  18.3518803314807 clicks","Daily estimated Local Click ratio per job in  Billings : $ 0.424760387322415"
"319","Brooklyn","NY",912,39600,28.6724182268749,11.2486147809293,0.392314826462242,-73.9496,40.6501,"Annual estimated Salary in  Brooklyn : $ 39600","Daily estimated Click per job in  Brooklyn :  28.6724182268749 clicks","Daily estimated Local Click ratio per job in  Brooklyn : $ 0.392314826462242"
"320","Colorado Springs","CO",975,39600,21.9093823345391,8.84767359906349,0.403830352858261,-104.7605,38.8673,"Annual estimated Salary in  Colorado Springs : $ 39600","Daily estimated Click per job in  Colorado Springs :  21.9093823345391 clicks","Daily estimated Local Click ratio per job in  Colorado Springs : $ 0.403830352858261"
"321","Durham","NC",530,39600,25.5316674094571,5.24614323752193,0.205475935174478,-78.9045,35.9801,"Annual estimated Salary in  Durham : $ 39600","Daily estimated Click per job in  Durham :  25.5316674094571 clicks","Daily estimated Local Click ratio per job in  Durham : $ 0.205475935174478"
"322","Lewiston","ME",83,39600,20.1599406407482,4.04706286662835,0.200747757086558,-70.1681,44.0915,"Annual estimated Salary in  Lewiston : $ 39600","Daily estimated Click per job in  Lewiston :  20.1599406407482 clicks","Daily estimated Local Click ratio per job in  Lewiston : $ 0.200747757086558"
"323","Waukegan","IL",102,39600,21.9653555469169,3.16355805848328,0.144024896465987,-87.8716,42.3697,"Annual estimated Salary in  Waukegan : $ 39600","Daily estimated Click per job in  Waukegan :  21.9653555469169 clicks","Daily estimated Local Click ratio per job in  Waukegan : $ 0.144024896465987"
"324","Industry","CA",206,39500,27.1007845135435,1.2754706680716,0.047063975857754,-117.9268,34.0175,"Annual estimated Salary in  Industry : $ 39500","Daily estimated Click per job in  Industry :  27.1007845135435 clicks","Daily estimated Local Click ratio per job in  Industry : $ 0.047063975857754"
"325","King of Prussia","PA",249,39500,20.2075056871373,1.37845232627,0.068214867664119,-75.3821,40.0962,"Annual estimated Salary in  King of Prussia : $ 39500","Daily estimated Click per job in  King of Prussia :  20.2075056871373 clicks","Daily estimated Local Click ratio per job in  King of Prussia : $ 0.068214867664119"
"326","New Albany","OH",51,39500,23.0552815320147,1.88247227746584,0.0816503704303859,-82.7926,40.0808,"Annual estimated Salary in  New Albany : $ 39500","Daily estimated Click per job in  New Albany :  23.0552815320147 clicks","Daily estimated Local Click ratio per job in  New Albany : $ 0.0816503704303859"
"327","Santa Fe Springs","CA",87,39500,24.1438746384492,1.2641354094146,0.0523584316247841,-118.0625,33.933,"Annual estimated Salary in  Santa Fe Springs : $ 39500","Daily estimated Click per job in  Santa Fe Springs :  24.1438746384492 clicks","Daily estimated Local Click ratio per job in  Santa Fe Springs : $ 0.0523584316247841"
